,address,zipcode,city,state,latitude,longitude,usecode,bedrooms,amount,last-updated,rent,rentPerUnit,totalMonthlyIncome,downPayment,loanAmount,interestRate,pmiRate,loanTerm_years,paymentsPerYear,taxRate,insuranceRate,monthlyInterest,monthlyPrincipal,monthlyP&I,monthlyTaxes,monthlyInsurance,monthlyPMI,subTotalMonthlyPayment,vacancy,capitalExpenditures,maintenance,subtotalMonthlyReserves,totalMonthlyExpenses,rehabCost,closingCosts,initialInvestment,monthlyCashFlow,yearlyLoanPaydown,appreciationAmount,oneYearNWROI
1354,5450 arapahoe ave,80303,Boulder,CO,40.013876,-105.238809,Condominium,6.0,929728.0,01/08/2020,2900.0,580.0,3480.0,32540.480000000003,897187.52,0.0366,0.01,30,12,0.008,0.005,2736.421936,1231.3898712,3967.8118072,619.8186666666667,387.3866666666667,747.6562666666667,5722.6734072,100,100,100,300,6022.6734072,20000,18594.56,71135.04000000001,-2542.6734072,14776.6784544,55783.68,0.6608315334889809
122,8433 e jamison cir n,80112,Centennial,CO,39.580241,-104.892778,SingleFamily,4.0,702284.0,01/08/2020,3239.0,1079.6666666666667,4318.666666666667,24579.940000000002,677704.0599999999,0.0366,0.01,30,12,0.008,0.005,2066.997383,930.1488223499999,2997.14620535,468.1893333333333,292.61833333333334,564.7533833333333,4322.70725535,100,100,100,300,4622.70725535,20000,14045.68,58625.62,-304.0405886833332,11161.785868199999,42137.04,1.0679006687519892
420,8523 e 149th dr,80602,Thornton,CO,39.967077,-104.88886299999999,Condominium,2.0,418679.0,01/08/2020,2195.0,2195.0,4390.0,14653.765000000001,404025.235,0.0366,0.01,30,12,0.008,0.005,1232.27696675,554.5246350374999,1786.8016017874997,279.1193333333334,174.44958333333332,336.6876958333333,2577.0582142875,100,100,100,300,2877.0582142875,20000,8373.58,43027.345,1512.9417857125,6654.295620449999,25120.739999999998,1.7726015176860201
174,6103 s logan pl,80121,Centennial,CO,39.605346000000004,-104.982111,SingleFamily,3.0,497228.0,01/08/2020,2250.0,1125.0,3375.0,17402.980000000003,479825.01999999996,0.0366,0.01,30,12,0.008,0.005,1463.466311,658.55983995,2122.0261509499996,331.48533333333336,207.1783333333333,399.8541833333333,3060.54400095,100,100,100,300,3360.54400095,20000,9944.56,47347.54,14.455999050000173,7902.7180794,29833.68,1.0857981231548672
219,7119 s espana way,80016,Centennial,CO,39.586837,-104.761521,SingleFamily,4.0,906433.0,01/08/2020,4221.0,1407.0,5628.0,31725.155000000002,874707.845,0.0366,0.01,30,12,0.008,0.005,2667.85892725,1200.5365172625,3868.3954445125,604.2886666666667,377.68041666666664,728.9232041666666,5579.2877320125,100,100,100,300,5879.2877320125,20000,18128.66,69853.815,-251.28773201249987,14406.43820715,54385.979999999996,1.1833421756993516
731,9545 kalamath cir,80260,Thornton,CO,39.870098,-105.00091699999999,SingleFamily,3.0,343598.0,01/08/2020,2045.0,1022.5,3067.5,12025.93,331572.07,0.0366,0.01,30,12,0.008,0.005,1011.2948135,455.082666075,1466.377479575,229.06533333333334,143.16583333333332,276.31005833333336,2114.918704575,100,100,100,300,2414.918704575,20000,6871.96,38897.89,652.581295425,5460.991992900001,20615.88,1.1871555896219563
1788,1211 s sable blvd,80012,Aurora,CO,39.694163,-104.819567,Condominium,2.0,282782.0,01/08/2020,1725.0,1725.0,3450.0,9897.37,272884.63,0.0366,0.01,30,12,0.008,0.005,832.2981215,374.534154675,1206.832276175,188.52133333333333,117.82583333333334,227.40385833333335,1740.583301175,100,100,100,300,2040.583301175,20000,5655.64,35553.01,1409.416698825,4494.4098561,16966.92,1.6615844971213405
171,6193 e jamison pl,80112,Centennial,CO,39.577892,-104.91726899999999,SingleFamily,3.0,612884.0,01/08/2020,2769.0,1384.5,4153.5,21450.940000000002,591433.0599999999,0.0366,0.01,30,12,0.008,0.005,1803.870833,811.74187485,2615.61270785,408.58933333333334,255.36833333333334,492.8608833333333,3772.43125785,100,100,100,300,4072.43125785,20000,12257.68,53708.62,81.06874215000016,9740.902498200001,36773.04,1.193491238538618
1545,3969 fuller ct,80305,Boulder,CO,39.990258000000004,-105.245028,SingleFamily,5.0,697090.0,01/08/2020,3200.0,800.0,4000.0,24398.15,672691.85,0.0366,0.01,30,12,0.008,0.005,2051.7101425,923.2695641250001,2974.9797066250003,464.7266666666667,290.4541666666667,560.5765416666667,4290.737081625,100,100,100,300,4590.737081625,20000,13941.800000000001,58339.950000000004,-590.7370816250004,11079.2347695,41825.4,0.949877224611951
1278,3250 darley ave,80305,Boulder,CO,39.978512,-105.2543,SingleFamily,3.0,772893.0,01/08/2020,2700.0,1350.0,4050.0,27051.255,745841.745,0.0366,0.01,30,12,0.008,0.005,2274.81732225,1023.6677950125,3298.4851172625,515.2620000000001,322.03875,621.5347875,4757.3206547624995,100,100,100,300,5057.3206547624995,20000,15457.86,62509.115000000005,-1007.3206547624995,12284.013540150001,46373.58,1.0041694828506211
1633,2918 s lisbon way,80013,Aurora,CO,39.664737,-104.74802700000001,SingleFamily,5.0,455050.0,01/08/2020,2400.0,600.0,3000.0,15926.750000000002,439123.25,0.0366,0.01,30,12,0.008,0.005,1339.3259125,602.696660625,1942.022573125,303.3666666666667,189.60416666666666,365.93604166666665,2800.929448125,100,100,100,300,3100.929448125,20000,9101.0,45027.75,-100.92944812499991,7232.359927500001,27303.0,0.8999829338574546
51,8126 s willow st,80112,Centennial,CO,39.569447,-104.88991000000001,SingleFamily,5.0,684286.0,01/08/2020,3142.0,785.5,3927.5,23950.010000000002,660335.99,0.0366,0.01,30,12,0.008,0.005,2014.0247695,906.311146275,2920.335915775,456.1906666666667,285.1191666666667,550.2799916666667,4211.925740775,100,100,100,300,4511.925740775,20000,13685.720000000001,57635.73,-584.4257407750001,10875.7337553,41057.159999999996,0.942918305467806
1824,875 s joplin cir,80017,Aurora,CO,39.700672999999995,-104.80083,Condominium,2.0,256239.0,01/08/2020,1700.0,1700.0,3400.0,8968.365000000002,247270.63499999998,0.0366,0.01,30,12,0.008,0.005,754.1754367499999,339.3789465375,1093.5543832874998,170.82600000000002,106.76625,206.0588625,1577.2054957874998,100,100,100,300,1877.2054957874998,20000,5124.78,34093.145000000004,1522.7945042125002,4072.5473584499996,15374.34,1.7047538855391604
1785,2225 n joliet st,80010,Aurora,CO,39.749973,-104.861411,SingleFamily,3.0,310093.0,01/08/2020,1750.0,875.0,2625.0,10853.255000000001,299239.745,0.0366,0.01,30,12,0.008,0.005,912.6812222499999,410.7065500125,1323.3877722624998,206.72866666666667,129.20541666666668,249.36645416666667,1908.6883097624998,100,100,100,300,2208.6883097624996,20000,6201.860000000001,37055.115000000005,416.31169023750044,4928.47860015,18605.579999999998,1.0532904535041923
35,5488 s ceylon way,80015,Centennial,CO,39.617129,-104.765388,SingleFamily,3.0,418359.0,01/08/2020,2295.0,1147.5,3442.5,14642.565,403716.435,0.0366,0.01,30,12,0.008,0.005,1231.33512675,554.1008070375,1785.4359337874998,278.906,174.31625,336.4303625,2575.0885462874994,100,100,100,300,2875.0885462874994,20000,8367.18,43009.745,567.4114537125006,6649.209684449999,25101.54,1.2166937313625088
392,5236 s laredo way,80015,Centennial,CO,39.621869000000004,-104.800572,SingleFamily,4.0,464457.0,01/08/2020,2400.0,800.0,3200.0,16255.995,448201.005,0.0366,0.01,30,12,0.008,0.005,1367.0130652500002,615.1558793625001,1982.1689446125001,309.638,193.52374999999998,373.5008375,2858.8315321125,100,100,100,300,3158.8315321125,20000,9289.14,45545.135,41.1684678874999,7381.870552350001,27867.42,0.9955687290640372
569,4077 e 130th way,80241,Thornton,CO,39.933725,-104.93870600000001,SingleFamily,4.0,416797.0,01/08/2020,2400.0,800.0,3200.0,14587.895000000002,402209.105,0.0366,0.01,30,12,0.008,0.005,1226.73777025,552.0319966125,1778.7697668625,277.86466666666666,173.6654166666667,335.1742541666667,2565.4741043625004,100,100,100,300,2865.4741043625004,20000,8335.94,42923.83500000001,334.5258956374996,6624.383959350001,25007.82,1.0541116539796593
1791,163 s granby ct,80012,Aurora,CO,39.71393,-104.811221,SingleFamily,3.0,346484.0,01/08/2020,2100.0,1050.0,3150.0,12126.94,334357.06,0.0366,0.01,30,12,0.008,0.005,1019.789033,458.90506485000003,1478.6940978500002,230.98933333333332,144.36833333333334,278.6308833333333,2132.68264785,100,100,100,300,2432.68264785,20000,6929.68,39056.62,717.3173521499998,5506.8607782,20789.04,1.2162780344023625
109,7822 s ivy way,80112,Centennial,CO,39.574524,-104.921571,SingleFamily,4.0,754896.0,01/08/2020,3481.0,1160.3333333333333,4641.333333333333,26421.360000000004,728474.64,0.0366,0.01,30,12,0.008,0.005,2221.847652,999.8314434,3221.6790954,503.26400000000007,314.54,607.0622,4646.5452954,100,100,100,300,4946.5452954,20000,15097.92,61519.28,-305.2119620666672,11997.9773208,45293.759999999995,1.0980816709168246
72,18655 e progress pl,80015,Centennial,CO,39.621676,-104.770719,SingleFamily,3.0,465411.0,01/08/2020,2295.0,1147.5,3442.5,16289.385000000002,449121.615,0.0366,0.01,30,12,0.008,0.005,1369.82092575,616.4194165875,1986.2403423375,310.274,193.92125,374.2680125,2864.7036048375,100,100,100,300,3164.7036048375,20000,9308.22,45597.605,277.7963951625002,7397.0329990499995,27924.66,1.1497369158095034
1882,2801 s ursula ct,80014,Aurora,CO,39.6661,-104.83886700000001,SingleFamily,4.0,385298.0,01/08/2020,2350.0,783.3333333333334,3133.3333333333335,13485.430000000002,371812.57,0.0366,0.01,30,12,0.008,0.005,1134.0283385,510.312752325,1644.341090825,256.86533333333335,160.54083333333332,309.84380833333336,2371.5910658250004,100,100,100,300,2671.5910658250004,20000,7705.96,41191.39,461.74226750833304,6123.7530279,23117.879999999997,1.0726159092470537
713,16634 humboldt st,80602,Thornton,CO,39.996618,-104.967825,SingleFamily,4.0,504460.0,01/08/2020,2573.0,857.6666666666666,3430.6666666666665,17656.100000000002,486803.89999999997,0.0366,0.01,30,12,0.008,0.005,1484.751895,668.1383527500001,2152.89024775,336.3066666666667,210.1916666666667,405.66991666666667,3105.0584977500002,100,100,100,300,3405.0584977500002,20000,10089.2,47745.3,25.608168916666273,8017.6602330000005,30267.6,1.0238611603655225
576,1145 w 96th ave,80260,Thornton,CO,39.871371999999994,-105.00063600000001,SingleFamily,3.0,342572.0,01/08/2020,1950.0,975.0,2925.0,11990.02,330581.98,0.0366,0.01,30,12,0.008,0.005,1008.275039,453.72376755,1461.99880655,228.38133333333334,142.73833333333334,275.48498333333333,2108.60345655,100,100,100,300,2408.60345655,20000,6851.4400000000005,38841.46,516.3965434500001,5444.6852106,20554.32,1.13012651254613
435,8692 e 148th ln,80602,Thornton,CO,39.966274,-104.885842,SingleFamily,4.0,520806.0,01/08/2020,2658.0,886.0,3544.0,18228.210000000003,502577.79,0.0366,0.01,30,12,0.008,0.005,1532.8622595,689.788016775,2222.6502762749997,347.204,217.00250000000003,418.814825,3205.671601275,100,100,100,300,3505.671601275,20000,10416.12,48644.33000000001,38.32839872500017,8277.4562013,31248.36,1.0405684894005116
164,8651 e otero pl,80112,Centennial,CO,39.569457,-104.88823000000001,SingleFamily,4.0,678977.0,01/08/2020,3106.0,1035.3333333333333,4141.333333333333,23764.195000000003,655212.8049999999,0.0366,0.01,30,12,0.008,0.005,1998.39905525,899.2795748625,2897.6786301125,452.6513333333333,282.90708333333333,546.0106708333333,4179.247717612499,100,100,100,300,4479.247717612499,20000,13579.54,57343.73500000001,-337.91438427916637,10791.35489835,40738.619999999995,1.044560531102482
578,3663 e 133rd ct,80241,Thornton,CO,39.936847,-104.944129,SingleFamily,3.0,428088.0,01/08/2020,2395.0,1197.5,3592.5,14983.080000000002,413104.92,0.0366,0.01,30,12,0.008,0.005,1259.970006,566.9865027000001,1826.9565087,285.392,178.37,344.25409999999994,2634.9726087,100,100,100,300,2934.9726087,20000,8561.76,43544.840000000004,657.5273913000001,6803.838032400001,25685.28,1.2573119278426559
677,9370 gail ct,80229,Thornton,CO,39.866935,-104.96677,SingleFamily,3.0,319974.0,01/08/2020,1800.0,900.0,2700.0,11199.090000000002,308774.91,0.0366,0.01,30,12,0.008,0.005,941.7634754999999,423.793563975,1365.5570394749998,213.316,133.32250000000002,257.312425,1969.5079644749999,100,100,100,300,2269.507964475,20000,6399.4800000000005,37598.57000000001,430.4920355250001,5085.5227677,19198.44,1.0705159050995823
19,8241 s high ct,80122,Centennial,CO,39.567276,-104.96723999999999,Townhouse,3.0,400951.0,01/08/2020,2150.0,1075.0,3225.0,14033.285000000002,386917.71499999997,0.0366,0.01,30,12,0.008,0.005,1180.0990307499999,531.0445638374999,1711.1435945874998,267.3006666666667,167.06291666666667,322.43142916666665,2467.9386070875,100,100,100,300,2767.9386070875,20000,8019.02,42052.30500000001,457.0613929125002,6372.534766049999,24057.059999999998,1.160800376602424
157,1454 e fair pl,80121,Centennial,CO,39.604657,-104.97128799999999,SingleFamily,5.0,1800783.0,01/08/2020,8850.0,2212.5,11062.5,63027.405000000006,1737755.595,0.0366,0.01,30,12,0.008,0.005,5300.15456475,2385.0695541375,7685.2241188875,1200.5220000000002,750.3262500000001,1448.1296625000002,11084.2020313875,100,100,100,300,11384.2020313875,20000,36015.66,119043.065,-321.7020313875,28620.834649649998,108046.98,1.3386532871360461
1282,2695 vassar dr,80305,Boulder,CO,39.985468,-105.25898799999999,SingleFamily,5.0,932495.0,01/08/2020,3200.0,800.0,4000.0,32637.325000000004,899857.6749999999,0.0366,0.01,30,12,0.008,0.005,2744.5659087499994,1235.0546589374997,3979.620567687499,621.6633333333333,388.5395833333334,749.8813958333334,5739.704880187498,100,100,100,300,6039.704880187498,20000,18649.9,71287.225,-2039.704880187498,14820.655907249995,55949.7,0.7840661120558419
1348,4904 fountain st,80304,Boulder,CO,40.06428,-105.286293,SingleFamily,4.0,1200134.0,01/08/2020,3750.0,1250.0,5000.0,42004.69,1158129.31,0.0366,0.01,30,12,0.008,0.005,3532.2943955000005,1589.5324779750003,5121.826873475001,800.0893333333333,500.05583333333334,965.1077583333334,7387.079798475001,100,100,100,300,7687.079798475001,20000,24002.68,86007.37,-2687.0797984750006,19074.389735700002,72008.04,0.8585016860066759
661,3851 e 122nd ave,80241,Thornton,CO,39.918608,-104.94120900000001,SingleFamily,3.0,336798.0,01/08/2020,1995.0,997.5,2992.5,11787.93,325010.07,0.0366,0.01,30,12,0.008,0.005,991.2807134999999,446.07632107499995,1437.357034575,224.532,140.3325,270.841725,2073.063259575,100,100,100,300,2373.063259575,20000,6735.96,38523.89,619.4367404250002,5352.9158529,20207.88,1.1671728046674412
1528,4665 pawnee pl,80303,Boulder,CO,39.988999,-105.23539099999999,SingleFamily,4.0,938580.0,01/08/2020,3000.0,1000.0,4000.0,32850.3,905729.7,0.0366,0.01,30,12,0.008,0.005,2762.475585,1243.1140132500002,4005.5895982500006,625.72,391.07500000000005,754.77475,5777.159348250001,100,100,100,300,6077.159348250001,20000,18771.600000000002,71621.90000000001,-2077.159348250001,14917.368159000001,56314.799999999996,0.8140841834690224
38,6477 s jericho way,80016,Centennial,CO,39.59955,-104.75360400000001,SingleFamily,5.0,547548.0,01/08/2020,2795.0,698.75,3493.75,19164.18,528383.82,0.0366,0.01,30,12,0.008,0.005,1611.570651,725.20679295,2336.77744395,365.032,228.145,440.3198499999999,3370.27429395,100,100,100,300,3670.27429395,20000,10950.960000000001,50115.14,-176.5242939499999,8702.4815154,32852.88,0.9542439667533604
1209,3835 darley ave,80305,Boulder,CO,39.979431,-105.24941299999999,SingleFamily,3.0,815585.0,01/08/2020,3000.0,1500.0,4500.0,28545.475000000002,787039.525,0.0366,0.01,30,12,0.008,0.005,2400.47055125,1080.2117480625,3480.6822993124997,543.7233333333334,339.82708333333335,655.8662708333334,5020.0989868125,100,100,100,300,5320.0989868125,20000,16311.7,64857.175,-820.0989868124998,12962.540976749999,48935.1,1.0801650416472812
173,21141 e belleview pl,80015,Centennial,CO,39.623843,-104.743041,SingleFamily,3.0,373097.0,01/08/2020,2125.0,1062.5,3187.5,13058.395,360038.605,0.0366,0.01,30,12,0.008,0.005,1098.1177452499999,494.1529853625,1592.2707306124998,248.7313333333333,155.45708333333334,300.03217083333334,2296.4913181125003,100,100,100,300,2596.4913181125003,20000,7461.9400000000005,40520.33500000001,591.0086818874997,5929.83582435,22385.82,1.188483757772486
456,4720 e 128th pl,80241,Thornton,CO,39.928702,-104.932331,SingleFamily,3.0,352338.0,01/08/2020,2000.0,1000.0,3000.0,12331.830000000002,340006.17,0.0366,0.01,30,12,0.008,0.005,1037.0188185,466.658468325,1503.677286825,234.89200000000002,146.8075,283.33847499999996,2168.715261825,100,100,100,300,2468.715261825,20000,7046.76,39378.590000000004,531.2847381749998,5599.9016199,21140.28,1.1456885195229183
1947,20297 e coolidge dr,80011,Aurora,CO,39.744009999999996,-104.751535,SingleFamily,2.0,287364.0,01/08/2020,1750.0,1750.0,3500.0,10057.740000000002,277306.26,0.0366,0.01,30,12,0.008,0.005,845.7840930000001,380.60284185000006,1226.3869348500002,191.57600000000002,119.735,231.08855000000003,1768.78648485,100,100,100,300,2068.7864848500003,20000,5747.28,35805.020000000004,1431.2135151499997,4567.234102200001,17241.84,1.6752856522353565
1900,8011 s shawnee st,80016,Aurora,CO,39.571376,-104.729352,SingleFamily,4.0,611684.0,01/08/2020,2764.0,921.3333333333334,3685.3333333333335,21408.940000000002,590275.0599999999,0.0366,0.01,30,12,0.008,0.005,1800.3389329999998,810.1525198499999,2610.4914528499994,407.78933333333333,254.86833333333334,491.8958833333333,3765.045002849999,100,100,100,300,4065.045002849999,20000,12233.68,53642.62,-379.71166951666555,9721.830238199998,36701.04,0.9865724344560354
1937,3800 s genoa cir b,80013,Aurora,CO,39.646542,-104.75854100000001,SingleFamily,3.0,271849.0,01/08/2020,1950.0,975.0,2925.0,9514.715,262334.285,0.0366,0.01,30,12,0.008,0.005,800.1195692499999,360.0538061625,1160.1733754124998,181.23266666666666,113.27041666666668,218.61190416666668,1673.2883629125,100,100,100,300,1973.2883629125,20000,5436.9800000000005,34951.695,951.7116370875001,4320.64567395,16310.939999999999,1.2517883701777552
1840,5982 n perth st,80015,Centennial,CO,39.607943,-104.735538,SingleFamily,4.0,398044.0,01/08/2020,2250.0,750.0,3000.0,13931.54,384112.45999999996,0.0366,0.01,30,12,0.008,0.005,1171.543003,527.19435135,1698.73735435,265.36266666666666,165.85166666666666,320.09371666666664,2450.04540435,100,100,100,300,2750.04540435,20000,7960.88,41892.42,249.9545956500001,6326.3322162,23882.64,1.0075433064979298
15,1437 e geddes ave,80122,Centennial,CO,39.584525,-104.97183899999999,SingleFamily,3.0,510474.0,01/08/2020,2500.0,1250.0,3750.0,17866.59,492607.41,0.0366,0.01,30,12,0.008,0.005,1502.4526005,676.103670225,2178.556270725,340.316,212.6975,410.506175,3142.075945725,100,100,100,300,3442.075945725,20000,10209.48,48076.06999999999,307.9240542749999,8113.2440427,30628.44,1.1947060708997221
329,3176 e phillips dr,80122,Centennial,CO,39.566412,-104.94923700000001,SingleFamily,3.0,510604.0,01/08/2020,2505.0,1252.5,3757.5,17871.140000000003,492732.86,0.0366,0.01,30,12,0.008,0.005,1502.835223,676.27585035,2179.11107335,340.4026666666667,212.75166666666667,410.61071666666663,3142.87612335,100,100,100,300,3442.87612335,20000,10212.08,48083.22,314.62387665000006,8115.310204200001,30636.239999999998,1.1970295817127055
91,7581 s richfield st,80016,Centennial,CO,39.578156,-104.787788,SingleFamily,5.0,986630.0,01/08/2020,4562.0,1140.5,5702.5,34532.05,952097.95,0.0366,0.01,30,12,0.008,0.005,2903.8987475,1306.754436375,4210.653183875,657.7533333333333,411.09583333333336,793.4149583333333,6072.917308874999,100,100,100,300,6372.917308874999,20000,19732.600000000002,74264.65000000001,-670.4173088749994,15681.0532365,59197.799999999996,1.0842284388332806
562,2144 e 101st pl,80229,Thornton,CO,39.878847,-104.961583,SingleFamily,3.0,442446.0,01/08/2020,2500.0,1250.0,3750.0,15485.61,426960.39,0.0366,0.01,30,12,0.008,0.005,1302.2291895,586.0031352750001,1888.232324775,294.964,184.3525,355.800325,2723.349149775,100,100,100,300,3023.349149775,20000,8848.92,44334.53,726.6508502249999,7032.037623300001,26546.76,1.2924149151011637
272,6872 s downing cir e,80122,Centennial,CO,39.591463,-104.973083,SingleFamily,3.0,411918.0,01/08/2020,2100.0,1050.0,3150.0,14417.130000000001,397500.87,0.0366,0.01,30,12,0.008,0.005,1212.3776535,545.569944075,1757.947597575,274.612,171.63250000000002,331.250725,2535.442822575,100,100,100,300,2835.442822575,20000,8238.36,42655.490000000005,314.5571774250002,6546.8393289,24715.079999999998,1.1167754832496357
1650,922 s ironton st,80012,Aurora,CO,39.699692999999996,-104.86327299999999,SingleFamily,4.0,336107.0,01/08/2020,2000.0,666.6666666666666,2666.6666666666665,11763.745,324343.255,0.0366,0.01,30,12,0.008,0.005,989.24692775,445.1611174875,1434.4080452375001,224.07133333333334,140.04458333333335,270.28604583333333,2068.8100077375,100,100,100,300,2368.8100077375,20000,6722.14,38485.885,297.8566589291663,5341.93340985,20166.42,0.9635385367128751
623,12731 glencoe st,80241,Thornton,CO,39.927426000000004,-104.92569099999999,SingleFamily,3.0,516314.0,01/08/2020,2615.0,1307.5,3922.5,18070.99,498243.01,0.0366,0.01,30,12,0.008,0.005,1519.6411805,683.838531225,2203.479711725,344.2093333333333,215.13083333333336,415.20250833333336,3178.0223867249997,100,100,100,300,3478.0223867249997,20000,10326.28,48397.270000000004,444.4776132750003,8206.062374699999,30978.84,1.2440502064269328
387,7874 s locust ct,80112,Centennial,CO,39.573448,-104.91463700000001,Condominium,4.0,814467.0,01/08/2020,3783.0,1261.0,5044.0,28506.345,785960.655,0.0366,0.01,30,12,0.008,0.005,2397.17999775,1078.7309989875,3475.9109967374998,542.978,339.36125,654.9672125000001,5013.2174592374995,100,100,100,300,5313.2174592374995,20000,16289.34,64795.685,-269.2174592374995,12944.77198785,48868.02,1.137640299303881
198,21878 e powers dr,80015,Centennial,CO,39.612953999999995,-104.73299899999999,SingleFamily,3.0,420711.0,01/08/2020,2250.0,1125.0,3375.0,14724.885000000002,405986.115,0.0366,0.01,30,12,0.008,0.005,1238.25765075,557.2159428375,1795.4735935875,280.474,175.29625,338.32176250000003,2589.5656060875003,100,100,100,300,2889.5656060875003,20000,8414.22,43139.105,485.4343939124997,6686.591314050001,25242.66,1.188120709527933
1419,4053 dawn ct,80304,Boulder,CO,40.048753999999995,-105.260698,SingleFamily,2.0,631540.0,01/08/2020,2500.0,2500.0,5000.0,22103.9,609436.1,0.0366,0.01,30,12,0.008,0.005,1858.7801049999998,836.45104725,2695.23115225,421.02666666666664,263.1416666666667,507.86341666666664,3887.26290225,100,100,100,300,4187.2629022500005,20000,12630.800000000001,54734.700000000004,812.7370977499995,10037.412567,37892.4,1.601957400698277
409,11653 columbine st,80233,Thornton,CO,39.906125,-104.956823,SingleFamily,3.0,405787.0,01/08/2020,2395.0,1197.5,3592.5,14202.545000000002,391584.455,0.0366,0.01,30,12,0.008,0.005,1194.3325877500001,537.4496644875001,1731.7822522375002,270.5246666666667,169.07791666666665,326.32037916666667,2497.7052147375002,100,100,100,300,2797.7052147375002,20000,8115.74,42318.284999999996,794.7947852624998,6449.395973850001,24347.219999999998,1.2926836093901253
1630,7882 s country club pkwy,80016,Aurora,CO,39.573406,-104.675647,SingleFamily,4.0,673241.0,01/08/2020,3121.0,1040.3333333333333,4161.333333333333,23563.435,649677.565,0.0366,0.01,30,12,0.008,0.005,1981.51657325,891.6824579625,2873.1990312125,448.82733333333334,280.51708333333335,541.3979708333333,4143.941418712499,100,100,100,300,4443.941418712499,20000,13464.82,57028.255,-282.60808537916637,10700.189495550001,40394.46,1.0553953031001915
601,10305 gaylord st,80229,Thornton,CO,39.882839000000004,-104.959974,SingleFamily,2.0,291837.0,01/08/2020,1700.0,1700.0,3400.0,10214.295,281622.705,0.0366,0.01,30,12,0.008,0.005,858.9492502500001,386.52716261250004,1245.4764128625002,194.558,121.59875,234.68558750000003,1796.3187503625004,100,100,100,300,2096.3187503625004,20000,5836.74,36051.034999999996,1303.6812496374996,4638.325951350001,17510.22,1.6141761518636013
1666,1040 s yampa st,80017,Aurora,CO,39.697716,-104.773808,Condominium,2.0,266172.0,01/08/2020,1700.0,1700.0,3400.0,9316.02,256855.97999999998,0.0366,0.01,30,12,0.008,0.005,783.4107389999999,352.53483255,1135.9455715499998,177.448,110.90500000000002,214.04665,1638.34522155,100,100,100,300,1938.34522155,20000,5323.4400000000005,34639.46,1461.65477845,4230.4179906,15970.32,1.678449817982151
1627,18477 e amherst dr,80013,Aurora,CO,39.663171000000006,-104.77383,SingleFamily,3.0,403994.0,01/08/2020,2250.0,1125.0,3375.0,14139.79,389854.20999999996,0.0366,0.01,30,12,0.008,0.005,1189.0553404999998,535.074903225,1724.1302437249997,269.32933333333335,168.33083333333335,324.8785083333333,2486.6689187249995,100,100,100,300,2786.6689187249995,20000,8079.88,42219.67,588.3310812750005,6420.898838699999,24239.64,1.213190719254793
214,6320 s jericho ct,80016,Centennial,CO,39.601929,-104.749256,SingleFamily,3.0,477760.0,01/08/2020,2500.0,1250.0,3750.0,16721.600000000002,461038.39999999997,0.0366,0.01,30,12,0.008,0.005,1406.1671199999998,632.7752039999999,2038.9423239999996,318.50666666666666,199.0666666666667,384.19866666666667,2940.7143239999996,100,100,100,300,3240.7143239999996,20000,9555.2,46276.8,509.2856760000004,7593.302447999999,28665.6,1.2397212114925837
571,1033 milky way,80260,Thornton,CO,39.854329,-104.999495,Townhouse,2.0,217600.0,01/08/2020,1390.0,1390.0,2780.0,7616.000000000001,209984.0,0.0366,0.01,30,12,0.008,0.005,640.4512000000001,288.20304000000004,928.6542400000001,145.06666666666666,90.66666666666667,174.98666666666668,1339.37424,100,100,100,300,1639.37424,20000,4352.0,31968.0,1140.62576,3458.4364800000003,13056.0,1.4665273273273274
587,9320 lilly ct,80229,Denver,CO,39.865990999999994,-104.968119,SingleFamily,3.0,305962.0,01/08/2020,1785.0,892.5,2677.5,10708.670000000002,295253.33,0.0366,0.01,30,12,0.008,0.005,900.5226565000002,405.2351954250001,1305.7578519250003,203.97466666666665,127.48416666666667,246.04444166666667,1883.2611269250003,100,100,100,300,2183.261126925,20000,6119.24,36827.91,494.2388730749999,4862.822345100001,18357.719999999998,1.0823695621608718
123,8121 e phillips cir,80112,Centennial,CO,39.568855,-104.894493,SingleFamily,2.0,403792.0,01/08/2020,2200.0,2200.0,4400.0,14132.720000000001,389659.27999999997,0.0366,0.01,30,12,0.008,0.005,1188.460804,534.8073618000001,1723.2681658000001,269.1946666666667,168.24666666666667,324.7160666666667,2485.4255658,100,100,100,300,2785.4255658,20000,8075.84,42208.56,1614.5744341999998,6417.688341600001,24227.52,1.8105356248116495
411,829 e 132nd dr,80241,Thornton,CO,39.93603,-104.977567,SingleFamily,3.0,427020.0,01/08/2020,2250.0,1125.0,3375.0,14945.7,412074.3,0.0366,0.01,30,12,0.008,0.005,1256.826615,565.57197675,1822.39859175,284.68,177.92499999999998,343.39525000000003,2628.39884175,100,100,100,300,2928.39884175,20000,8540.4,43486.1,446.60115825,6786.863721,25621.2,1.1789348233113572
1776,2739 s xanadu way,80014,Aurora,CO,39.666691,-104.832756,Condominium,4.0,357066.0,01/08/2020,2155.0,718.3333333333334,2873.3333333333335,12497.310000000001,344568.69,0.0366,0.01,30,12,0.008,0.005,1050.9345045,472.920527025,1523.855031525,238.044,148.7775,287.140575,2197.817106525,100,100,100,300,2497.817106525,20000,7141.32,39638.630000000005,375.5162268083336,5675.0463243,21423.96,1.0147979646622498
124,5424 s pitkin st,80015,Centennial,CO,39.617678000000005,-104.789438,SingleFamily,4.0,447392.0,01/08/2020,2400.0,800.0,3200.0,15658.720000000001,431733.27999999997,0.0366,0.01,30,12,0.008,0.005,1316.786504,592.5539268,1909.3404308,298.2613333333333,186.41333333333333,359.77773333333334,2753.7928308,100,100,100,300,3053.7928308,20000,8947.84,44606.56,146.20716919999995,7110.6471216,26843.52,1.0157396838491917
381,16244 e prentice pl,80015,Centennial,CO,39.619685,-104.799882,SingleFamily,5.0,544348.0,01/08/2020,2750.0,687.5,3437.5,19052.18,525295.82,0.0366,0.01,30,12,0.008,0.005,1602.1522509999998,720.9685129499999,2323.12076395,362.89866666666666,226.8116666666667,437.74651666666665,3350.5776139499994,100,100,100,300,3650.5776139499994,20000,10886.960000000001,49939.14,-213.07761394999943,8651.622155399999,32660.879999999997,0.9412571139190624
1806,967 n elkhart st,80011,Aurora,CO,39.729921999999995,-104.815007,SingleFamily,4.0,338924.0,01/08/2020,2100.0,700.0,2800.0,11862.340000000002,327061.66,0.0366,0.01,30,12,0.008,0.005,997.538063,448.89212835,1446.4301913499999,225.94933333333336,141.21833333333333,272.5513833333333,2086.14924135,100,100,100,300,2386.14924135,20000,6778.4800000000005,38640.82000000001,413.85075865,5386.7055402000005,20335.44,1.0115819137378552
1351,1015 rose hill dr,80302,Boulder,CO,40.005937,-105.28685300000001,SingleFamily,4.0,2889550.0,01/08/2020,9120.0,3040.0,12160.0,101134.25000000001,2788415.75,0.0366,0.01,30,12,0.008,0.005,8504.6680375,3827.100616875,12331.768654374999,1926.3666666666668,1203.9791666666667,2323.679791666667,17785.794279374997,100,100,100,300,18085.794279374997,20000,57791.0,178925.25,-5925.794279374997,45925.207402500004,173373.0,1.0320995837647289
1594,3855 birchwood dr,80304,Boulder,CO,40.044269,-105.261785,SingleFamily,3.0,951589.0,01/08/2020,3005.0,1502.5,4507.5,33305.615000000005,918283.385,0.0366,0.01,30,12,0.008,0.005,2800.76432425,1260.3439459125,4061.1082701625,634.3926666666667,396.49541666666664,765.2361541666668,5857.2325076625,100,100,100,300,6157.2325076625,20000,19031.78,72337.395,-1649.7325076625002,15124.127350949999,57095.34,0.9739454573806533
1915,2838 s fundy st,80013,Aurora,CO,39.665752000000005,-104.758309,SingleFamily,3.0,338011.0,01/08/2020,2000.0,1000.0,3000.0,11830.385,326180.615,0.0366,0.01,30,12,0.008,0.005,994.85087575,447.6828940875,1442.5337698375001,225.3406666666667,140.83791666666667,271.8171791666667,2080.5295323375003,100,100,100,300,2380.5295323375003,20000,6760.22,38590.605,619.4704676624997,5372.19472905,20280.66,1.1683284141567614
244,8161 s st paul way,80122,Centennial,CO,39.568573,-104.952354,SingleFamily,4.0,603581.0,01/08/2020,2845.0,948.3333333333334,3793.3333333333335,21125.335000000003,582455.665,0.0366,0.01,30,12,0.008,0.005,1776.4897782500002,799.4204002125001,2575.9101784625004,402.38733333333334,251.49208333333334,485.37972083333335,3715.169315962501,100,100,100,300,4015.169315962501,20000,12071.62,53196.95500000001,-221.83598262916757,9593.04480255,36214.86,1.024981091699703
87,7298 s xanthia way,80112,Centennial,CO,39.584866999999996,-104.887625,SingleFamily,4.0,623498.0,01/08/2020,2850.0,950.0,3800.0,21822.43,601675.57,0.0366,0.01,30,12,0.008,0.005,1835.1104884999997,825.7997198249999,2660.9102083249995,415.66533333333336,259.79083333333335,501.3963083333333,3837.7626833249997,100,100,100,300,4137.762683325,20000,12469.960000000001,54292.39,-337.76268332499967,9909.596637899998,37409.88,1.0068874189918697
679,1170 e 131st dr,80241,Thornton,CO,39.935266999999996,-104.97231399999998,SingleFamily,5.0,435138.0,01/08/2020,2300.0,575.0,2875.0,15229.830000000002,419908.17,0.0366,0.01,30,12,0.008,0.005,1280.7199185,576.323963325,1857.043881825,290.09200000000004,181.3075,349.923475,2678.366856825,100,100,100,300,2978.366856825,20000,8702.76,43932.590000000004,-103.36685682500001,6915.8875599,26108.28,0.8805254886634272
793,6710 e 134th cir,80602,Thornton,CO,39.940042,-104.909522,SingleFamily,3.0,519248.0,01/08/2020,2649.0,1324.5,3973.5,18173.68,501074.32,0.0366,0.01,30,12,0.008,0.005,1528.2766760000002,687.7245042000001,2216.0011802000004,346.16533333333336,216.35333333333335,417.56193333333334,3196.0817802000006,100,100,100,300,3496.0817802000006,20000,10384.960000000001,48558.64,477.4182197999994,8252.694050400001,31154.879999999997,1.2568431218007752
736,5391 e 143rd dr,80602,Thornton,CO,39.956747,-104.926473,SingleFamily,4.0,532992.0,01/08/2020,2741.0,913.6666666666666,3654.6666666666665,18654.72,514337.27999999997,0.0366,0.01,30,12,0.008,0.005,1568.7287039999999,705.9279167999999,2274.6566208,355.328,222.08,428.6144,3280.6790207999998,100,100,100,300,3580.6790207999998,20000,10659.84,49314.56,73.98764586666675,8471.1350016,31979.52,1.0605895449944196
686,1542 e 130th ct,80241,Thornton,CO,39.933084,-104.969222,SingleFamily,3.0,460933.0,01/08/2020,2500.0,1250.0,3750.0,16132.655,444800.345,0.0366,0.01,30,12,0.008,0.005,1356.6410522499998,610.4884735124999,1967.1295257624997,307.28866666666664,192.05541666666667,370.6669541666667,2837.1405632624997,100,100,100,300,3137.1405632624997,20000,9218.66,45351.315,612.8594367375003,7325.861682149999,27655.98,1.2642666463585455
115,3008 e cresthill ave,80121,Centennial,CO,39.602593,-104.954146,SingleFamily,4.0,492591.0,01/08/2020,2400.0,800.0,3200.0,17240.685,475350.315,0.0366,0.01,30,12,0.008,0.005,1449.81846075,652.4183073375,2102.2367680875,328.394,205.24625,396.1252625,3032.0022805875,100,100,100,300,3332.0022805875,20000,9851.82,47092.505,-132.00228058750008,7829.01968805,29555.46,0.9640695970834424
1674,2017 s hannibal st d,80013,Aurora,CO,39.678779999999996,-104.809554,MultiFamily2To4,2.0,261917.0,01/08/2020,1598.0,1598.0,3196.0,9167.095000000001,252749.905,0.0366,0.01,30,12,0.008,0.005,770.88721025,346.8992446125,1117.7864548625,174.61133333333336,109.13208333333334,210.62492083333333,1612.1547923625,100,100,100,300,1912.1547923625,20000,5238.34,34405.435,1283.8452076375,4162.79093535,15715.019999999999,1.5828880939014431
189,1486 e fremont cir s,80122,Centennial,CO,39.585002,-104.970826,SingleFamily,4.0,528071.0,01/08/2020,2700.0,900.0,3600.0,18482.485,509588.51499999996,0.0366,0.01,30,12,0.008,0.005,1554.24497075,699.4102368375001,2253.6552075875,352.04733333333337,220.02958333333333,424.65709583333336,3250.3892200875002,100,100,100,300,3550.3892200875002,20000,10561.42,49043.905,49.610779912499765,8392.92284205,31684.26,1.0495190421929084
30,7539 e easter pl,80112,Centennial,CO,39.587629,-104.901578,SingleFamily,3.0,531313.0,01/08/2020,2600.0,1300.0,3900.0,18595.955,512717.045,0.0366,0.01,30,12,0.008,0.005,1563.7869872499998,703.7041442624999,2267.4911315124996,354.20866666666666,221.38041666666666,427.2642041666666,3270.3444190125,100,100,100,300,3570.3444190125,20000,10626.26,49222.215000000004,329.6555809874999,8444.449731149998,31878.78,1.2165055291193212
1686,4729 s biloxi way,80016,Aurora,CO,39.630583,-104.711984,SingleFamily,3.0,446017.0,01/08/2020,2350.0,1175.0,3525.0,15610.595000000001,430406.40499999997,0.0366,0.01,30,12,0.008,0.005,1312.73953525,590.7327908625,1903.4723261125,297.3446666666667,185.84041666666667,358.6720041666667,2745.3294136125005,100,100,100,300,3045.3294136125005,20000,8920.34,44530.935,479.6705863874995,7088.79349035,26761.02,1.2060348727687842
1828,26525 e walker dr,80016,Aurora,CO,39.601449,-104.677181,SingleFamily,4.0,628472.0,01/08/2020,2995.0,998.3333333333334,3993.3333333333335,21996.52,606475.48,0.0366,0.01,30,12,0.008,0.005,1849.750214,832.3875962999999,2682.1378102999997,418.98133333333334,261.86333333333334,505.3962333333333,3868.3787102999995,100,100,100,300,4168.3787102999995,20000,12569.44,54565.96000000001,-175.04537696666603,9988.651155599999,37708.32,1.0551711475799197
60,5233 s cathay way,80015,Centennial,CO,39.621586,-104.766786,SingleFamily,5.0,493509.0,01/08/2020,2650.0,662.5,3312.5,17272.815000000002,476236.185,0.0366,0.01,30,12,0.008,0.005,1452.52036425,653.6341639125001,2106.1545281625004,329.00600000000003,205.62875,396.8634875,3037.6527656625003,100,100,100,300,3337.6527656625003,20000,9870.18,47142.995,-25.152765662500315,7843.609966950001,29610.539999999997,0.9567130128028563
20,5804 s pearl st,80121,Centennial,CO,39.611884,-104.979352,SingleFamily,2.0,220594.0,01/08/2020,1550.0,1550.0,3100.0,7720.790000000001,212873.21,0.0366,0.01,30,12,0.008,0.005,649.2632904999999,292.168480725,941.4317712249999,147.06266666666667,91.91416666666667,177.3943416666667,1357.802946225,100,100,100,300,1657.802946225,20000,4411.88,32132.670000000002,1442.197053775,3506.0217687,13235.64,1.6384578814645654
184,7795 s poplar way,80112,Centennial,CO,39.574739,-104.906581,SingleFamily,5.0,591254.0,01/08/2020,2590.0,647.5,3237.5,20693.890000000003,570560.11,0.0366,0.01,30,12,0.008,0.005,1740.2083355000002,783.0937509750001,2523.3020864750006,394.1693333333333,246.35583333333332,475.4667583333333,3639.294011475001,100,100,100,300,3939.294011475001,20000,11825.08,52518.97,-701.7940114750008,9397.125011700002,35475.24,0.8419974130109555
541,10594 madison st,80233,Thornton,CO,39.889086,-104.94362,SingleFamily,3.0,383714.0,01/08/2020,2200.0,1100.0,3300.0,13429.990000000002,370284.01,0.0366,0.01,30,12,0.008,0.005,1129.3662305,508.214803725,1637.5810342250002,255.80933333333334,159.88083333333333,308.57000833333336,2361.841209225,100,100,100,300,2661.841209225,20000,7674.28,41104.270000000004,638.1587907749999,6098.577644700001,23022.84,1.2159156003500367
155,2725 e maplewood ave,80121,Centennial,CO,39.604952000000004,-104.95704599999999,SingleFamily,4.0,435130.0,01/08/2020,2250.0,750.0,3000.0,15229.550000000001,419900.45,0.0366,0.01,30,12,0.008,0.005,1280.6963725,576.3133676250001,1857.009740125,290.08666666666664,181.30416666666667,349.91704166666665,2678.317615125,100,100,100,300,2978.317615125,20000,8702.6,43932.15,21.682384875000025,6915.760411500001,26107.8,0.9624784817041733
1784,15792 e tufts ave,80015,Aurora,CO,39.6334,-104.804138,SingleFamily,3.0,362401.0,01/08/2020,2125.0,1062.5,3187.5,12684.035000000002,349716.96499999997,0.0366,0.01,30,12,0.008,0.005,1066.6367432499999,479.98653446249995,1546.6232777124999,241.60066666666668,151.00041666666667,291.43080416666663,2230.6551652125,100,100,100,300,2530.6551652125,20000,7248.02,39932.05500000001,656.8448347875001,5759.838413549999,21744.059999999998,1.2054485157600827
707,2035 e 125th pl,80241,Thornton,CO,39.926718,-104.96307,SingleFamily,4.0,433945.0,01/08/2020,2450.0,816.6666666666666,3266.6666666666665,15188.075,418756.925,0.0366,0.01,30,12,0.008,0.005,1277.20862125,574.7438795625001,1851.9525008125001,289.2966666666667,180.81041666666667,348.96410416666663,2671.0236883125,100,100,100,300,2971.0236883125,20000,8678.9,43866.975,295.64297835416664,6896.926554750001,26036.7,1.0550383812651771
1845,14832 e security pl,80011,Aurora,CO,39.736107000000004,-104.814532,SingleFamily,2.0,340170.0,01/08/2020,1995.0,1995.0,3990.0,11905.95,328264.05,0.0366,0.01,30,12,0.008,0.005,1001.2053525,450.542408625,1451.7477611250001,226.78,141.7375,273.553375,2093.818636125,100,100,100,300,2393.818636125,20000,6803.400000000001,38709.35,1596.181363875,5406.5089035,20410.2,1.7802129271093419
1844,2243 s ventura st,80013,Aurora,CO,39.676163,-104.777084,SingleFamily,3.0,384010.0,01/08/2020,2250.0,1125.0,3375.0,13440.350000000002,370569.64999999997,0.0366,0.01,30,12,0.008,0.005,1130.2374324999998,508.60684462499995,1638.8442771249997,256.00666666666666,160.00416666666666,308.8080416666666,2363.6631521249997,100,100,100,300,2663.6631521249997,20000,7680.2,41120.55,711.3368478750003,6103.2821355,23040.6,1.2446313171881211
613,12799 ivy st,80602,Thornton,CO,39.928092,-104.920492,Condominium,3.0,325378.0,01/08/2020,1895.0,947.5,2842.5,11388.230000000001,313989.77,0.0366,0.01,30,12,0.008,0.005,957.6687985,430.950959325,1388.6197578249999,216.91866666666667,135.57416666666668,261.6581416666667,2002.770732825,100,100,100,300,2302.770732825,20000,6507.56,37895.79,539.7292671750001,5171.4115119,19522.68,1.1225743735122027
340,7242 e hinsdale ave,80112,Centennial,CO,39.582696999999996,-104.905156,SingleFamily,4.0,892348.0,01/08/2020,4150.0,1383.3333333333333,5533.333333333333,31232.180000000004,861115.82,0.0366,0.01,30,12,0.008,0.005,2626.403251,1181.88146295,3808.28471395,594.8986666666667,371.81166666666667,717.5965166666666,5492.59156395,100,100,100,300,5792.59156395,20000,17846.96,69079.14000000001,-259.2582306166669,14182.5775554,53540.88,1.175642296473291
1793,3769 s danube cir,80013,Aurora,CO,39.648937,-104.763245,SingleFamily,4.0,274794.0,01/08/2020,1920.0,640.0,2560.0,9617.79,265176.20999999996,0.0366,0.01,30,12,0.008,0.005,808.7874404999999,363.95434822499993,1172.7417887249999,183.196,114.4975,220.98017499999995,1691.4154637249997,100,100,100,300,1991.4154637249997,20000,5495.88,35113.67,568.5845362750003,4367.452178699999,16487.64,1.0069612949600542
103,5273 s nepal way,80015,Centennial,CO,39.62082,-104.741957,SingleFamily,4.0,446103.0,01/08/2020,2350.0,783.3333333333334,3133.3333333333335,15613.605000000001,430489.39499999996,0.0366,0.01,30,12,0.008,0.005,1312.99265475,590.8466946375,1903.8393493875,297.402,185.87625,358.7411625,2745.8587618875,100,100,100,300,3045.8587618875,20000,8922.06,44535.665,87.47457144583359,7090.16033565,26766.18,0.9948439120197262
187,8121 s york ct,80122,Centennial,CO,39.570027,-104.96180700000001,SingleFamily,4.0,555697.0,01/08/2020,2794.0,931.3333333333334,3725.3333333333335,19449.395,536247.605,0.0366,0.01,30,12,0.008,0.005,1635.55519525,735.9998378625,2371.5550331125,370.4646666666667,231.5404166666667,446.8730041666667,3420.4331206125003,100,100,100,300,3720.4331206125003,20000,11113.94,50563.33500000001,4.900212720833224,8831.99805435,33341.82,1.0562717156018286
269,5672 s jebel way,80015,Centennial,CO,39.613624,-104.750323,SingleFamily,3.0,398297.0,01/08/2020,2195.0,1097.5,3292.5,13940.395,384356.605,0.0366,0.01,30,12,0.008,0.005,1172.28764525,527.5294403625,1699.8170856125,265.53133333333335,165.95708333333334,320.2971708333333,2451.6026731125003,100,100,100,300,2751.6026731125003,20000,7965.9400000000005,41906.33500000001,540.8973268874997,6330.353284350001,23897.82,1.1904868609244876
1526,245 abbey pl,80302,Boulder,CO,39.99572,-105.27058999999998,SingleFamily,3.0,1418628.0,01/08/2020,4434.0,2217.0,6651.0,49651.98,1368976.02,0.0366,0.01,30,12,0.008,0.005,4175.376861,1878.9195874499999,6054.29644845,945.752,591.095,1140.8133500000001,8731.956798449999,100,100,100,300,9031.956798449999,20000,28372.56,98024.54000000001,-2380.956798449999,22547.035049399998,85117.68,1.078273190243994
1898,13045 e linvale pl,80014,Aurora,CO,39.66737,-104.838763,SingleFamily,3.0,294992.0,01/08/2020,1900.0,950.0,2850.0,10324.720000000001,284667.27999999997,0.0366,0.01,30,12,0.008,0.005,868.235204,390.7058418,1258.9410458,196.66133333333335,122.91333333333334,237.2227333333333,1815.7384458,100,100,100,300,2115.7384457999997,20000,5899.84,36224.56,734.2615542000003,4688.4701016,17699.52,1.1759736695766632
1652,2503 s ouray st,80013,Aurora,CO,39.671384,-104.793532,SingleFamily,3.0,373516.0,01/08/2020,2170.0,1085.0,3255.0,13073.060000000001,360442.94,0.0366,0.01,30,12,0.008,0.005,1099.350967,494.70793515,1594.05890215,249.01066666666668,155.63166666666666,300.3691166666667,2299.07035215,100,100,100,300,2599.07035215,20000,7470.32,40543.38,655.92964785,5936.4952218,22410.96,1.214467343275277
1300,774 cottage ln,80304,Boulder,CO,40.051486,-105.28550700000001,SingleFamily,2.0,710797.0,01/08/2020,2400.0,2400.0,4800.0,24877.895000000004,685919.105,0.0366,0.01,30,12,0.008,0.005,2092.05327025,941.4239716125,3033.4772418625,473.86466666666666,296.16541666666666,571.5992541666667,4375.1065793625,100,100,100,300,4675.1065793625,20000,14215.94,59093.83500000001,124.89342063749973,11297.08765935,42647.82,1.4255908202099252
1760,951 s evanston cir,80012,Aurora,CO,39.698706,-104.813137,SingleFamily,2.0,277897.0,01/08/2020,1800.0,1800.0,3600.0,9726.395,268170.605,0.0366,0.01,30,12,0.008,0.005,817.92034525,368.0641553625,1185.9845006125,185.26466666666667,115.79041666666667,223.47550416666664,1710.5150881125,100,100,100,300,2010.5150881125,20000,5557.9400000000005,35284.335,1589.4849118875,4416.76986435,16673.82,1.7504767712640752
777,13175 jasmine st,80602,Thornton,CO,39.935208,-104.91921,SingleFamily,3.0,395384.0,01/08/2020,2300.0,1150.0,3450.0,13838.44,381545.56,0.0366,0.01,30,12,0.008,0.005,1163.713958,523.6712811,1687.3852391,263.58933333333334,164.74333333333334,317.95463333333333,2433.6725391,100,100,100,300,2733.6725391,20000,7907.68,41746.12,716.3274609,6284.0553732,23723.04,1.255278931407278
1878,25055 e 4th pl,80018,Aurora,CO,39.723462,-104.695219,SingleFamily,3.0,450966.0,01/08/2020,2450.0,1225.0,3675.0,15783.810000000001,435182.19,0.0366,0.01,30,12,0.008,0.005,1327.3056795,597.287555775,1924.593235275,300.644,187.9025,362.651825,2775.791560275,100,100,100,300,3075.791560275,20000,9019.32,44803.13,599.2084397250001,7167.4506693,27057.96,1.2524998129818163
1787,16357 e brunswick pl,80013,Aurora,CO,39.664409,-104.797333,SingleFamily,2.0,353736.0,01/08/2020,2150.0,2150.0,4300.0,12380.760000000002,341355.24,0.0366,0.01,30,12,0.008,0.005,1041.133482,468.51006689999997,1509.6435489,235.82399999999998,147.39000000000001,284.4627,2177.3202489,100,100,100,300,2477.3202489,20000,7074.72,39455.48,1822.6797511,5622.1208028,21224.16,1.8886714295707465
1867,16970 e wagon trail pkwy,80015,Aurora,CO,39.630417,-104.790595,SingleFamily,3.0,299136.0,01/08/2020,1958.0,979.0,2937.0,10469.76,288666.24,0.0366,0.01,30,12,0.008,0.005,880.432032,396.1944144,1276.6264464,199.424,124.64,240.5552,1841.2456464000002,100,100,100,300,2141.2456464,20000,5982.72,36452.48,795.7543535999998,4754.332972800001,17948.16,1.207038457081658
1741,17843 e bethany dr,80013,Aurora,CO,39.662199,-104.780603,SingleFamily,3.0,330160.0,01/08/2020,1900.0,950.0,2850.0,11555.6,318604.39999999997,0.0366,0.01,30,12,0.008,0.005,971.7434199999999,437.28453899999994,1409.0279589999998,220.10666666666668,137.56666666666666,265.5036666666667,2032.204959,100,100,100,300,2332.2049589999997,20000,6603.2,38158.799999999996,517.7950410000003,5247.414467999999,19809.6,1.1182362904493854
48,6078 s jackson st,80121,Centennial,CO,39.606136,-104.942899,SingleFamily,3.0,513007.0,01/08/2020,2450.0,1225.0,3675.0,17955.245000000003,495051.755,0.0366,0.01,30,12,0.008,0.005,1509.9078527499998,679.4585337374999,2189.3663864874998,342.0046666666667,213.75291666666666,412.5431291666667,3157.6670989875,100,100,100,300,3457.6670989875,20000,10260.14,48215.385,217.33290101249986,8153.502404849999,30780.42,1.1664724281886372
1335,2667 winding trail dr,80304,Boulder,CO,40.042558,-105.261872,SingleFamily,4.0,1129737.0,01/08/2020,3500.0,1166.6666666666667,4666.666666666667,39540.795000000006,1090196.205,0.0366,0.01,30,12,0.008,0.005,3325.09842525,1496.2942913625002,4821.3927166125,753.158,470.72375000000005,908.4968375,6953.771304112501,100,100,100,300,7253.771304112501,20000,22594.74,82135.535,-2587.1046374458338,17955.531496350002,67784.22,0.8363553709974616
240,6280 s monaco way,80111,Centennial,CO,39.603004999999996,-104.91213700000002,SingleFamily,4.0,549175.0,01/08/2020,2600.0,866.6666666666666,3466.6666666666665,19221.125000000004,529953.875,0.0366,0.01,30,12,0.008,0.005,1616.35931875,727.3616934375001,2343.7210121875,366.11666666666673,228.82291666666666,441.62822916666664,3380.2888246875,100,100,100,300,3680.2888246875,20000,10983.5,50204.625,-213.62215802083347,8728.340321250002,32950.5,0.9862711737215446
1323,897 meadow glen dr,80303,Boulder,CO,40.003828000000006,-105.221974,SingleFamily,4.0,877512.0,01/08/2020,3120.0,1040.0,4160.0,30712.920000000002,846799.08,0.0366,0.01,30,12,0.008,0.005,2582.737194,1162.2317372999998,3744.9689313,585.008,365.63000000000005,705.6659,5401.2728313,100,100,100,300,5701.2728313,20000,17550.24,68263.16,-1541.2728312999998,13946.7808476,52650.72,0.887480551325195
1724,7538 s shawnee st,80016,Aurora,CO,39.579545,-104.729745,SingleFamily,3.0,395261.0,01/08/2020,2295.0,1147.5,3442.5,13834.135000000002,381426.865,0.0366,0.01,30,12,0.008,0.005,1163.35193825,523.5083722125,1686.8603104625001,263.50733333333335,164.69208333333333,317.85572083333335,2432.9154479625,100,100,100,300,2732.9154479625,20000,7905.22,41739.355,709.5845520375001,6282.10046655,23715.66,1.2526014139653092
518,9230 fir dr,80229,Thornton,CO,39.864276000000004,-104.97005300000001,SingleFamily,3.0,313151.0,01/08/2020,1900.0,950.0,2850.0,10960.285000000002,302190.71499999997,0.0366,0.01,30,12,0.008,0.005,921.6816807499999,414.7567563375,1336.4384370875,208.76733333333334,130.47958333333335,251.8255958333333,1927.5109495875,100,100,100,300,2227.5109495875,20000,6263.02,37223.30500000001,622.4890504125001,4977.08107605,18789.059999999998,1.1454117166920021
741,9531 dorothy blvd,80229,Thornton,CO,39.869493,-104.972261,SingleFamily,2.0,316122.0,01/08/2020,1975.0,1975.0,3950.0,11064.27,305057.73,0.0366,0.01,30,12,0.008,0.005,930.4260764999999,418.691734425,1349.117810925,210.74800000000002,131.7175,254.214775,1945.798085925,100,100,100,300,2245.798085925,20000,6322.4400000000005,37386.71,1704.2019140749999,5024.3008131,18967.32,1.8226274465445074
17,2932 e dry creek pl,80122,Centennial,CO,39.579726,-104.954559,SingleFamily,4.0,574724.0,01/08/2020,2845.0,948.3333333333334,3793.3333333333335,20115.34,554608.66,0.0366,0.01,30,12,0.008,0.005,1691.5564130000002,761.2003858500001,2452.7567988500005,383.14933333333335,239.46833333333333,462.1738833333334,3537.5483488500004,100,100,100,300,3837.5483488500004,20000,11494.48,51609.81999999999,-44.21501551666688,9134.4046302,34483.44,1.055366293546461
757,9401 nagel dr,80229,Thornton,CO,39.866996,-104.971524,SingleFamily,3.0,309344.0,01/08/2020,1850.0,925.0,2775.0,10827.04,298516.95999999996,0.0366,0.01,30,12,0.008,0.005,910.476728,409.7145276,1320.1912556,206.22933333333333,128.89333333333335,248.76413333333332,1904.0780556000002,100,100,100,300,2204.0780556,20000,6186.88,37013.92,570.9219444,4916.5743311999995,18560.64,1.1192620955575634
117,7050 s magnolia cir,80112,Centennial,CO,39.589793,-104.91173500000001,SingleFamily,4.0,789374.0,01/08/2020,3644.0,1214.6666666666667,4858.666666666667,27628.090000000004,761745.91,0.0366,0.01,30,12,0.008,0.005,2323.3250255000003,1045.4962614750002,3368.8212869750005,526.2493333333333,328.9058333333333,634.7882583333334,4858.764711975,100,100,100,300,5158.764711975,20000,15787.48,63415.57000000001,-300.098045308333,12545.955137700003,47362.439999999995,1.1177573361557738
1979,2263 s troy way,80014,Aurora,CO,39.675508,-104.838943,SingleFamily,2.0,341594.0,01/08/2020,1995.0,1995.0,3990.0,11955.79,329638.20999999996,0.0366,0.01,30,12,0.008,0.005,1005.3965404999999,452.42844322499997,1457.8249837249998,227.72933333333333,142.33083333333335,274.69850833333334,2102.583658725,100,100,100,300,2402.583658725,20000,6831.88,38787.67,1587.416341275,5429.1413187,20495.64,1.7766928875593713
1368,"5048 ralston st,",80304,Boulder,CO,40.06583,-105.28582,Condominium,2.0,192771.0,01/08/2020,1895.0,1895.0,3790.0,6746.985000000001,186024.01499999998,0.0366,0.01,30,12,0.008,0.005,567.3732457499999,255.31796058749995,822.6912063374998,128.514,80.32125,155.02001249999998,1186.5464688374998,100,100,100,300,1486.5464688374998,20000,3855.42,30602.405,2303.4535311625004,3063.815527049999,11566.26,2.1243924423913745
1843,13791 e lehigh ave,80014,Aurora,CO,39.648697999999996,-104.827698,Condominium,2.0,265073.0,01/08/2020,1509.0,1509.0,3018.0,9277.555,255795.44499999998,0.0366,0.01,30,12,0.008,0.005,780.17610725,351.0792482625,1131.2553555125,176.71533333333332,110.44708333333334,213.1628708333333,1631.5806430124999,100,100,100,300,1931.5806430124999,20000,5301.46,34579.015,1086.4193569875001,4212.95097915,15904.38,1.4824703151029606
1457,900 parkway dr,80303,Boulder,CO,40.004563,-105.226859,SingleFamily,6.0,1242176.0,01/08/2020,3904.0,780.8,4684.799999999999,43476.16,1198699.8399999999,0.0366,0.01,30,12,0.008,0.005,3656.0345119999997,1645.2155303999998,5301.250042399999,828.1173333333332,517.5733333333334,998.9165333333332,7645.857242399999,100,100,100,300,7945.857242399999,20000,24843.52,88319.68000000001,-3261.0572424,19742.586364799998,74530.56,0.7304154573023814
257,5095 e weaver ave,80121,Centennial,CO,39.600245,-104.928688,SingleFamily,3.0,402951.0,01/08/2020,2200.0,1100.0,3300.0,14103.285000000002,388847.71499999997,0.0366,0.01,30,12,0.008,0.005,1185.98553075,533.6934888375,1719.6790195875,268.634,167.89625,324.0397625,2480.2490320875,100,100,100,300,2780.2490320875,20000,8059.02,42162.30500000001,519.7509679125001,6404.321866050001,24177.059999999998,1.186329672464539
1412,1387 yellow pine ave,80304,Boulder,CO,40.059838,-105.28021799999999,Townhouse,2.0,705510.0,01/08/2020,2850.0,2850.0,5700.0,24692.850000000002,680817.15,0.0366,0.01,30,12,0.008,0.005,2076.4923075,934.4215383750001,3010.9138458750003,470.34,293.96250000000003,567.347625,4342.563970875,100,100,100,300,4642.563970875,20000,14110.2,58803.05,1057.4360291249995,11213.0584605,42330.6,1.707953767874285
1757,1835 s yampa way,80017,Aurora,CO,39.68396,-104.774008,SingleFamily,3.0,344287.0,01/08/2020,1970.0,985.0,2955.0,12050.045000000002,332236.955,0.0366,0.01,30,12,0.008,0.005,1013.32271275,455.9952207375,1469.3179334875,229.5246666666667,143.45291666666665,276.8641291666667,2119.1596459875,100,100,100,300,2419.1596459875,20000,6885.74,38935.785,535.8403540125,5471.94264885,20657.219999999998,1.1398061422673254
1389,2347 goss st,80302,Boulder,CO,40.016458,-105.263791,MultiFamily2To4,6.0,1343287.0,01/08/2020,4083.0,816.6,4899.6,47015.045000000006,1296271.955,0.0366,0.01,30,12,0.008,0.005,3953.6294627500006,1779.1332582375003,5732.762720987501,895.5246666666667,559.7029166666667,1080.2266291666667,8268.216933487502,100,100,100,300,8568.216933487502,20000,26865.74,93880.78500000002,-3668.6169334875012,21349.599098850005,80597.22,0.7213682320295891
125,5164 s laredo way,80015,Centennial,CO,39.622634000000005,-104.801787,SingleFamily,5.0,474689.0,01/08/2020,2595.0,648.75,3243.75,16614.115,458074.885,0.0366,0.01,30,12,0.008,0.005,1397.12839925,628.7077796625,2025.8361789125001,316.45933333333335,197.78708333333336,381.7290708333333,2921.8116664125,100,100,100,300,3221.8116664125,20000,9493.78,46107.895000000004,21.938333587499983,7544.4933559500005,28481.34,0.9558903818749478
227,8204 s fillmore cir,80122,Centennial,CO,39.567535,-104.95454,SingleFamily,3.0,297110.0,01/08/2020,1748.0,874.0,2622.0,10398.85,286711.14999999997,0.0366,0.01,30,12,0.008,0.005,874.4690074999999,393.51105337499996,1267.9800608749997,198.07333333333335,123.79583333333333,238.92595833333328,1828.7751858749996,100,100,100,300,2128.775185875,20000,5942.2,36341.049999999996,493.2248141250002,4722.1326405,17826.6,1.0719401450976238
528,1511 e 90th ave,80229,Thornton,CO,39.860135,-104.968352,SingleFamily,3.0,320362.0,01/08/2020,1900.0,950.0,2850.0,11212.670000000002,309149.33,0.0366,0.01,30,12,0.008,0.005,942.9054565000001,424.30745542500006,1367.2129119250003,213.57466666666667,133.48416666666665,257.62444166666666,1971.8961869250002,100,100,100,300,2271.896186925,20000,6407.24,37619.91,578.1038130749998,5091.6894651,19221.719999999998,1.1337256049256894
637,5295 e 117th ave,80233,Thornton,CO,39.908295,-104.926199,SingleFamily,3.0,410880.0,01/08/2020,2400.0,1200.0,3600.0,14380.800000000001,396499.2,0.0366,0.01,30,12,0.008,0.005,1209.32256,544.195152,1753.517712,273.92,171.20000000000002,330.416,2529.0537120000004,100,100,100,300,2829.0537120000004,20000,8217.6,42598.4,770.9462879999996,6530.341824,24652.8,1.2872431189903846
1499,1385 alpine ave,80304,Boulder,CO,40.025665000000004,-105.27881799999999,Townhouse,2.0,913006.0,01/08/2020,1900.0,1900.0,3800.0,31955.210000000003,881050.7899999999,0.0366,0.01,30,12,0.008,0.005,2687.2049094999998,1209.2422092749998,3896.4471187749996,608.6706666666666,380.4191666666666,734.2089916666665,5619.745943774999,100,100,100,300,5919.745943774999,20000,18260.12,70215.33,-2119.7459437749994,14510.906511299998,54780.36,0.949284368328113
337,2676 e geddes ave,80122,Centennial,CO,39.585331,-104.957696,SingleFamily,3.0,381197.0,01/08/2020,2200.0,1100.0,3300.0,13341.895,367855.105,0.0366,0.01,30,12,0.008,0.005,1121.95807025,504.8811316125,1626.8392018625,254.13133333333334,158.83208333333334,306.54592083333335,2346.3485393624997,100,100,100,300,2646.3485393624997,20000,7623.9400000000005,40965.83500000001,653.6514606375003,6058.57357935,22871.82,1.2198997312516635
265,1550 e maplewood ct,80121,Centennial,CO,39.605569,-104.97053100000001,SingleFamily,6.0,1624335.0,01/08/2020,7491.0,1498.2,8989.2,56851.725000000006,1567483.275,0.0366,0.01,30,12,0.008,0.005,4780.823988749999,2151.3707949375,6932.194783687499,1082.89,676.80625,1306.2360625,9998.1270961875,100,100,100,300,10298.1270961875,20000,32486.7,109338.425,-1308.927096187499,25816.449539249996,97460.09999999999,1.1482497976809158
794,7500 e 129th pl,80602,Thornton,CO,39.928979,-104.900636,SingleFamily,5.0,521872.0,01/08/2020,2731.0,682.75,3413.75,18265.52,503606.48,0.0366,0.01,30,12,0.008,0.005,1535.999764,691.1998937999999,2227.1996578,347.9146666666666,217.4466666666667,419.6720666666667,3212.2330577999996,100,100,100,300,3512.2330577999996,20000,10437.44,48702.96000000001,-98.48305779999964,8294.3987256,31312.32,0.9571886807701215
1206,3268 big horn st,80301,Boulder,CO,40.042126,-105.250404,SingleFamily,4.0,1025797.0,01/08/2020,3880.0,1293.3333333333333,5173.333333333333,35902.895000000004,989894.105,0.0366,0.01,30,12,0.008,0.005,3019.1770202499997,1358.6296591125,4377.806679362499,683.8646666666667,427.41541666666666,824.9117541666666,6313.998516862499,100,100,100,300,6613.998516862499,20000,20515.94,76418.835,-1440.665183529166,16303.555909349998,61547.82,0.9956104893119609
583,2814 e 118th ct,80233,Thornton,CO,39.910938,-104.951203,SingleFamily,3.0,352859.0,01/08/2020,1995.0,997.5,2992.5,12350.065,340508.935,0.0366,0.01,30,12,0.008,0.005,1038.55225175,467.34851328750005,1505.9007650375002,235.23933333333332,147.02458333333334,283.75744583333335,2171.9221275375003,100,100,100,300,2471.9221275375003,20000,7057.18,39407.245,520.5778724624997,5608.182159450001,21171.54,1.1418371578373467
537,9770 dahlia ln,80229,Thornton,CO,39.873615,-104.931676,Townhouse,2.0,297420.0,01/08/2020,1795.0,1795.0,3590.0,10409.7,287010.3,0.0366,0.01,30,12,0.008,0.005,875.381415,393.92163675,1269.30305175,198.28,123.92500000000001,239.17525,1830.6833017499998,100,100,100,300,2130.68330175,20000,5948.400000000001,36358.1,1459.3166982500002,4727.059641,17845.2,1.6949197020746412
369,5472 s zeno st,80015,Centennial,CO,39.61694,-104.77336,SingleFamily,4.0,491663.0,01/08/2020,2595.0,865.0,3460.0,17208.205,474454.795,0.0366,0.01,30,12,0.008,0.005,1447.08712475,651.1892061375,2098.2763308875,327.7753333333333,204.85958333333335,395.37899583333336,3026.2902433875,100,100,100,300,3326.2902433875,20000,9833.26,47041.465000000004,133.70975661249986,7814.27047365,29499.78,1.0479811279899551
652,12784 leyden st,80602,Brighton,CO,39.928226,-104.914298,Condominium,2.0,334790.0,01/08/2020,1875.0,1875.0,3750.0,11717.650000000001,323072.35,0.0366,0.01,30,12,0.008,0.005,985.3706675,443.416800375,1428.787467875,223.19333333333336,139.49583333333334,269.22695833333336,2060.703592875,100,100,100,300,2360.703592875,20000,6695.8,38413.450000000004,1389.2964071249999,5321.001604499999,20087.399999999998,1.6811809012207963
24,6222 e otero dr,80112,Centennial,CO,39.568837,-104.916756,SingleFamily,3.0,595750.0,01/08/2020,2800.0,1400.0,4200.0,20851.250000000004,574898.75,0.0366,0.01,30,12,0.008,0.005,1753.4411874999998,789.0485343749999,2542.4897218749998,397.1666666666667,248.22916666666666,479.08229166666666,3666.9678468749994,100,100,100,300,3966.9678468749994,20000,11915.0,52766.25,233.0321531250006,9468.5824125,35745.0,1.2282466207092604
1911,149 n paris cir,80011,Aurora,CO,39.71902,-104.84763000000001,SingleFamily,4.0,286733.0,01/08/2020,1635.0,545.0,2180.0,10035.655,276697.345,0.0366,0.01,30,12,0.008,0.005,843.9269022499999,379.76710601249994,1223.6940082625,191.15533333333335,119.47208333333333,230.58112083333333,1764.9025457624998,100,100,100,300,2064.9025457625,20000,5734.66,35770.315,115.09745423750019,4557.2052721499995,17203.98,0.8298041189461149
647,2647 e 118th ct,80233,Thornton,CO,39.909935,-104.954145,SingleFamily,3.0,374180.0,01/08/2020,2160.0,1080.0,3240.0,13096.300000000001,361083.7,0.0366,0.01,30,12,0.008,0.005,1101.3052850000001,495.5873782500001,1596.8926632500002,249.45333333333335,155.90833333333333,300.9030833333333,2303.15741325,100,100,100,300,2603.15741325,20000,7483.6,40579.9,636.84258675,5947.048539000001,22450.8,1.2074933545918052
327,5346 s flanders way,80015,Centennial,CO,39.620157,-104.759985,SingleFamily,3.0,418276.0,01/08/2020,2250.0,1125.0,3375.0,14639.660000000002,403636.33999999997,0.0366,0.01,30,12,0.008,0.005,1231.090837,553.99087665,1785.08171365,278.85066666666665,174.28166666666667,336.36361666666664,2574.57766365,100,100,100,300,2874.57766365,20000,8365.52,43005.18000000001,500.42233635,6647.8905198,25096.559999999998,1.191705709777287
1566,4645 macky way,80305,Boulder,CO,39.976011,-105.23913300000001,SingleFamily,3.0,719975.0,01/08/2020,2500.0,1250.0,3750.0,25199.125000000004,694775.875,0.0366,0.01,30,12,0.008,0.005,2119.06641875,953.5798884375001,3072.6463071875005,479.98333333333335,299.9895833333333,578.9798958333333,4431.599119687501,100,100,100,300,4731.599119687501,20000,14399.5,59598.625,-981.5991196875011,11442.958661250002,43198.5,0.9708658417035626
332,19552 e sunset cir,80015,Centennial,CO,39.636089,-104.759147,Townhouse,3.0,402709.0,01/08/2020,2195.0,1097.5,3292.5,14094.815,388614.185,0.0366,0.01,30,12,0.008,0.005,1185.27326425,533.3729689125,1718.6462331625,268.47266666666667,167.79541666666668,323.84515416666665,2478.7594706625005,100,100,100,300,2778.7594706625005,20000,8054.18,42148.995,513.7405293374995,6400.47562695,24162.54,1.183845592973213
1860,12022 e maple ave,80012,Aurora,CO,39.711887,-104.84758599999999,Condominium,3.0,262055.0,01/08/2020,1795.0,897.5,2692.5,9171.925000000001,252883.07499999998,0.0366,0.01,30,12,0.008,0.005,771.29337875,347.0820204375,1118.3753991875,174.70333333333335,109.18958333333335,210.73589583333333,1613.0042116875002,100,100,100,300,1913.0042116875002,20000,5241.1,34413.025,779.4957883124998,4164.98424525,15723.3,1.1627060889009317
1602,6290 s langdale way,80016,Aurora,CO,39.602668,-104.688965,SingleFamily,7.0,762057.0,01/08/2020,3950.0,658.3333333333334,4608.333333333334,26671.995000000003,735385.005,0.0366,0.01,30,12,0.008,0.005,2242.92426525,1009.3159193625002,3252.2401846125003,508.038,317.52375,612.8208375,4690.622772112501,100,100,100,300,4990.622772112501,20000,15241.14,61913.135,-382.28943877916663,12111.791032350002,45723.42,0.9876375629662429
1246,6069 brandywine ct,80301,Boulder,CO,40.057784999999996,-105.21301299999999,SingleFamily,4.0,721378.0,01/08/2020,2995.0,998.3333333333334,3993.3333333333335,25248.230000000003,696129.77,0.0366,0.01,30,12,0.008,0.005,2123.1957985000004,955.4381093250001,3078.6339078250003,480.9186666666667,300.57416666666666,580.1081416666667,4440.234882825001,100,100,100,300,4740.234882825001,20000,14427.56,59675.79,-746.9015494916671,11465.2573119,43282.68,0.9679824719203549
657,10850 albion ct,80233,Thornton,CO,39.892348999999996,-104.93928899999999,SingleFamily,2.0,343023.0,01/08/2020,1995.0,1995.0,3990.0,12005.805,331017.195,0.0366,0.01,30,12,0.008,0.005,1009.60244475,454.3211001375,1463.9235448875002,228.68200000000002,142.92625,275.8476625,2111.3794573875,100,100,100,300,2411.3794573875,20000,6860.46,38866.265,1578.6205426124998,5451.85320165,20581.38,1.7731747496961698
71,7133 s st paul st,80122,Centennial,CO,39.587086,-104.95131699999999,SingleFamily,4.0,561499.0,01/08/2020,2500.0,833.3333333333334,3333.3333333333335,19652.465,541846.535,0.0366,0.01,30,12,0.008,0.005,1652.6319317500001,743.6843692875001,2396.3163010375,374.3326666666667,233.95791666666665,451.5387791666667,3456.1456635375002,100,100,100,300,3756.1456635375002,20000,11229.98,50882.44499999999,-422.81233020416676,8924.212431450002,33689.94,0.9343183974158477
666,3520 e 107th ave,80233,Thornton,CO,39.890211,-104.94403100000001,SingleFamily,3.0,355473.0,01/08/2020,2150.0,1075.0,3225.0,12441.555,343031.445,0.0366,0.01,30,12,0.008,0.005,1046.24590725,470.81065826250006,1517.0565655125001,236.982,148.11375,285.85953750000004,2188.0118530125,100,100,100,300,2488.0118530125,20000,7109.46,39551.015,736.9881469874999,5649.727899150001,21328.38,1.2318764932581374
156,8296 s locust way,80112,Centennial,CO,39.566338,-104.913931,SingleFamily,4.0,542160.0,01/08/2020,2500.0,833.3333333333334,3333.3333333333335,18975.600000000002,523184.39999999997,0.0366,0.01,30,12,0.008,0.005,1595.7124199999998,718.0705889999999,2313.7830089999998,361.44,225.9,435.987,3337.110009,100,100,100,300,3637.110009,20000,10843.2,49818.8,-303.7766756666665,8616.847068,32529.6,0.9534779432663973
788,5336 e 128th dr,80241,Thornton,CO,39.928713,-104.92725800000001,SingleFamily,3.0,375108.0,01/08/2020,2150.0,1075.0,3225.0,13128.78,361979.22,0.0366,0.01,30,12,0.008,0.005,1104.036621,496.81647945,1600.85310045,250.072,156.295,301.64934999999997,2308.8694504500004,100,100,100,300,2608.8694504500004,20000,7502.16,40630.94,616.1305495499996,5961.7977534,22506.48,1.2001160777476474
215,5246 s netherland way,80015,Centennial,CO,39.621499,-104.740638,SingleFamily,3.0,385388.0,01/08/2020,2295.0,1147.5,3442.5,13488.580000000002,371899.42,0.0366,0.01,30,12,0.008,0.005,1134.2932309999999,510.43195395,1644.7251849499999,256.92533333333336,160.57833333333335,309.9161833333333,2372.1450349499996,100,100,100,300,2672.1450349499996,20000,7707.76,41196.340000000004,770.3549650500004,6125.1834474,23123.28,1.2686253931295837
1930,10419 e 25th dr,80010,Aurora,CO,39.754228999999995,-104.86628700000001,SingleFamily,4.0,569329.0,01/08/2020,2922.0,974.0,3896.0,19926.515000000003,549402.485,0.0366,0.01,30,12,0.008,0.005,1675.67757925,754.0549106625,2429.7324899125,379.5526666666667,237.22041666666667,457.83540416666665,3504.3409774125003,100,100,100,300,3804.3409774125003,20000,11386.58,51313.095,91.65902258749975,9048.65892795,34159.74,1.0912673889384374
1772,3448 s norfolk way,80013,Aurora,CO,39.654844,-104.795614,SingleFamily,6.0,418000.0,01/08/2020,2100.0,420.0,2520.0,14630.000000000002,403370.0,0.0366,0.01,30,12,0.008,0.005,1230.2785000000001,553.6253250000001,1783.9038250000003,278.6666666666667,174.16666666666666,336.1416666666667,2572.8788250000002,100,100,100,300,2872.8788250000002,20000,8360.0,42990.0,-352.87882500000023,6643.5039000000015,25080.0,0.7566633635729239
698,9736 elizabeth st,80229,Thornton,CO,39.87275,-104.954823,SingleFamily,3.0,342441.0,01/08/2020,2195.0,1097.5,3292.5,11985.435000000001,330455.565,0.0366,0.01,30,12,0.008,0.005,1007.8894732499999,453.55026296249997,1461.4397362124998,228.294,142.68375,275.3796375,2107.7971237125,100,100,100,300,2407.7971237125,20000,6848.82,38834.255000000005,884.7028762875002,5442.603155549999,20546.46,1.2817420514697655
425,12108 adams st,80241,Thornton,CO,39.918535999999996,-104.946601,SingleFamily,6.0,484254.0,01/08/2020,2437.0,487.4,2924.3999999999996,16948.890000000003,467305.11,0.0366,0.01,30,12,0.008,0.005,1425.2805855,641.376263475,2066.656848975,322.836,201.7725,389.42092499999995,2980.686273975,100,100,100,300,3280.686273975,20000,9685.08,46633.97,-356.2862739750003,7696.515161699999,29055.239999999998,0.8218283769106511
1601,19125 e oxford dr,80013,Aurora,CO,39.641554,-104.764778,SingleFamily,2.0,330395.0,01/08/2020,2000.0,2000.0,4000.0,11563.825,318831.175,0.0366,0.01,30,12,0.008,0.005,972.43508375,437.5957876875,1410.0308714375,220.26333333333332,137.66458333333335,265.6926458333333,2033.6514339375,100,100,100,300,2333.6514339375,20000,6607.900000000001,38171.725,1666.3485660625001,5251.14945225,19823.7,1.8094815532963207
1885,14008 e idaho pl,80012,Aurora,CO,39.690315999999996,-104.824322,SingleFamily,3.0,379279.0,01/08/2020,2240.0,1120.0,3360.0,13274.765000000001,366004.235,0.0366,0.01,30,12,0.008,0.005,1116.3129167499999,502.34081253749997,1618.6537292874998,252.85266666666666,158.03291666666667,305.0035291666666,2334.5428417875,100,100,100,300,2634.5428417875,20000,7585.58,40860.345,725.4571582125,6028.08975045,22756.739999999998,1.2464484979018164
522,9261 nagel dr,80229,Thornton,CO,39.864564,-104.96983600000002,SingleFamily,3.0,326187.0,01/08/2020,1995.0,997.5,2992.5,11416.545000000002,314770.455,0.0366,0.01,30,12,0.008,0.005,960.04988775,432.0224494875,1392.0723372375,217.458,135.91125,262.3087125,2007.7502997375002,100,100,100,300,2307.7502997375004,20000,6523.74,37940.285,684.7497002624996,5184.26939385,19571.219999999998,1.1845584659419397
176,5840 s walden ct,80015,Centennial,CO,39.610937,-104.774339,SingleFamily,4.0,587774.0,01/08/2020,2995.0,998.3333333333334,3993.3333333333335,20572.09,567201.91,0.0366,0.01,30,12,0.008,0.005,1729.9658255000002,778.484621475,2508.450446975,391.84933333333333,244.90583333333333,472.66825833333337,3617.873871975,100,100,100,300,3917.873871975,20000,11755.48,52327.56999999999,75.45946135833356,9341.8154577,35266.44,1.0987280508917194
609,14082 cook st,80602,Thornton,CO,39.951419,-104.948004,SingleFamily,4.0,480974.0,01/08/2020,2500.0,833.3333333333334,3333.3333333333335,16834.09,464139.91,0.0366,0.01,30,12,0.008,0.005,1415.6267255,637.0320264750001,2052.658751975,320.64933333333335,200.40583333333333,386.7832583333333,2960.497176975,100,100,100,300,3260.497176975,20000,9619.48,46453.56999999999,72.83615635833348,7644.384317700001,28858.44,1.0198755056715771
78,19875 e wagontrail dr,80015,Centennial,CO,39.628794,-104.756814,SingleFamily,4.0,357208.0,01/08/2020,2100.0,700.0,2800.0,12502.28,344705.72,0.0366,0.01,30,12,0.008,0.005,1051.3524459999999,473.10860069999995,1524.4610466999998,238.1386666666667,148.83666666666667,287.2547666666666,2198.6911466999995,100,100,100,300,2498.6911466999995,20000,7144.16,39646.44,301.30885330000046,5677.3032084,21432.48,0.9868600925581213
194,8209 s fillmore way,80122,Centennial,CO,39.567536,-104.95438200000001,Townhouse,2.0,301001.0,01/08/2020,1850.0,1850.0,3700.0,10535.035000000002,290465.96499999997,0.0366,0.01,30,12,0.008,0.005,885.9211932499999,398.66453696249994,1284.5857302124998,200.66733333333335,125.41708333333334,242.0549708333333,1852.7251177124997,100,100,100,300,2152.7251177125,20000,6020.02,36555.05500000001,1547.2748822875,4783.97444355,18060.059999999998,1.7401514792140236
624,14532 race st,80602,Thornton,CO,39.960397,-104.962718,SingleFamily,3.0,417919.0,01/08/2020,2200.0,1100.0,3300.0,14627.165,403291.83499999996,0.0366,0.01,30,12,0.008,0.005,1230.04009675,553.5180435375,1783.5581402875,278.61266666666666,174.1329166666667,336.07652916666666,2572.3802527874996,100,100,100,300,2872.3802527874996,20000,8358.380000000001,42985.545,427.61974721250044,6642.21652245,25075.14,1.1643168299715638
23,20534 e maplewood ln,80016,Centennial,CO,39.605189,-104.748927,SingleFamily,3.0,493898.0,01/08/2020,2500.0,1250.0,3750.0,17286.43,476611.57,0.0366,0.01,30,12,0.008,0.005,1453.6652885,654.1493798250001,2107.814668325,329.26533333333333,205.79083333333335,397.17630833333334,3040.0471433250004,100,100,100,300,3340.0471433250004,20000,9877.960000000001,47164.39,409.95285667499957,7849.792557900001,29633.879999999997,1.2170857470646814
130,6667 s clarkson st,80121,Centennial,CO,39.59599,-104.975406,SingleFamily,3.0,462448.0,01/08/2020,2200.0,1100.0,3300.0,16185.680000000002,446262.32,0.0366,0.01,30,12,0.008,0.005,1361.100076,612.4950342,1973.5951102,308.2986666666667,192.6866666666667,371.88526666666667,2846.4657101999996,100,100,100,300,3146.4657101999996,20000,9248.960000000001,45434.64,153.53428980000035,7349.9404104,27746.879999999997,1.1035463665608445
330,6347 village ln,80111,Centennial,CO,39.600623,-104.83555600000001,SingleFamily,2.0,739104.0,01/08/2020,3402.0,3402.0,6804.0,25868.640000000003,713235.36,0.0366,0.01,30,12,0.008,0.005,2175.367848,978.9155316,3154.2833796,492.73600000000005,307.96,594.3628,4549.3421796,100,100,100,300,4849.3421796,20000,14782.08,60650.72,1954.6578203999998,11746.9863792,44346.24,1.9846940023795263
248,7287 s clermont dr,80122,Centennial,CO,39.585115,-104.936777,SingleFamily,3.0,439107.0,01/08/2020,2317.0,1158.5,3475.5,15368.745,423738.255,0.0366,0.01,30,12,0.008,0.005,1292.40167775,581.5807549875001,1873.9824327375002,292.738,182.96124999999998,353.11521250000004,2702.7968952375,100,100,100,300,3002.7968952375,20000,8782.14,44150.885,472.70310476250006,6978.969059850001,26346.42,1.1981600440625368
495,13199 logan st,80241,Thornton,CO,39.936440999999995,-104.984078,SingleFamily,4.0,613709.0,01/08/2020,3154.0,1051.3333333333333,4205.333333333333,21479.815000000002,592229.1849999999,0.0366,0.01,30,12,0.008,0.005,1806.29901425,812.8345564125,2619.1335706625,409.13933333333335,255.71208333333334,493.5243208333333,3777.5093081625,100,100,100,300,4077.5093081625,20000,12274.18,53753.995,127.82402517083301,9754.014676949999,36822.54,1.1297103216049336
1315,4540 comanche dr,80303,Boulder,CO,39.996443,-105.23758799999999,SingleFamily,3.0,839244.0,01/08/2020,2865.0,1432.5,4297.5,29373.540000000005,809870.46,0.0366,0.01,30,12,0.008,0.005,2470.104903,1111.54720635,3581.6521093499996,559.496,349.685,674.89205,5165.7251593500005,100,100,100,300,5465.7251593500005,20000,16784.88,66158.42000000001,-1168.2251593500005,13338.566476199998,50354.64,1.0106726334153684
515,5344 e 112th pl,80233,Thornton,CO,39.89998,-104.92439399999999,SingleFamily,3.0,340639.0,01/08/2020,1950.0,975.0,2925.0,11922.365000000002,328716.635,0.0366,0.01,30,12,0.008,0.005,1002.5857367500001,451.1635815375001,1453.7493182875003,227.09266666666667,141.93291666666667,273.93052916666664,2096.7054307875,100,100,100,300,2396.7054307875,20000,6812.78,38735.145000000004,528.2945692124999,5413.962978450001,20438.34,1.1331269783293698
208,6642 s sherman st,80121,Centennial,CO,39.59642,-104.98375,SingleFamily,3.0,420919.0,01/08/2020,2100.0,1050.0,3150.0,14732.165,406186.83499999996,0.0366,0.01,30,12,0.008,0.005,1238.8698467499999,557.4914310375,1796.3612777874998,280.61266666666666,175.3829166666667,338.4890291666666,2590.8458902874995,100,100,100,300,2890.8458902874995,20000,8418.380000000001,43150.545,259.1541097125005,6689.89717245,25255.14,1.1043866650815188
1998,19608 e 58th pl,80019,Aurora,CO,39.802085999999996,-104.760017,SingleFamily,3.0,304454.0,01/08/2020,2000.0,1000.0,3000.0,10655.890000000001,293798.11,0.0366,0.01,30,12,0.008,0.005,896.0842355,403.237905975,1299.322141475,202.96933333333334,126.85583333333334,244.83175833333334,1873.979066475,100,100,100,300,2173.979066475,20000,6089.08,36744.97,826.0209335250001,4838.854871699999,18267.239999999998,1.2251566969302192
1731,14436 e tufts pl d,80015,Aurora,CO,39.634706,-104.819797,Condominium,2.0,243820.0,01/08/2020,1400.0,1400.0,2800.0,8533.7,235286.3,0.0366,0.01,30,12,0.008,0.005,717.623215,322.93044675,1040.55366175,162.54666666666665,101.59166666666668,196.07191666666665,1500.7639117499998,100,100,100,300,1800.7639117499998,20000,4876.400000000001,33410.1,999.2360882500002,3875.165361,14629.199999999999,1.4155958353910945
0,5675 s odessa st,80015,Centennial,CO,39.613168,-104.738527,SingleFamily,4.0,396009.0,01/08/2020,2200.0,733.3333333333334,2933.3333333333335,13860.315,382148.685,0.0366,0.01,30,12,0.008,0.005,1165.55348925,524.4990701625001,1690.0525594125002,264.00600000000003,165.00375,318.4572375,2437.5195469125,100,100,100,300,2737.5195469125,20000,7920.18,41780.495,195.81378642083337,6293.98884195,23760.54,0.9862088584398054
137,7733 s steele st,80122,Centennial,CO,39.576896999999995,-104.95064599999999,Townhouse,2.0,323999.0,01/08/2020,1700.0,1700.0,3400.0,11339.965000000002,312659.035,0.0366,0.01,30,12,0.008,0.005,953.6100567499999,429.12452553749995,1382.7345822875,215.99933333333334,134.99958333333333,260.54919583333333,1994.2826947875,100,100,100,300,2294.2826947875,20000,6479.9800000000005,37819.94500000001,1105.7173052125,5149.494306449999,19439.94,1.5404052536036208
1272,4726 edison ln,80301,Boulder,CO,40.030684,-105.243398,SingleFamily,2.0,402778.0,01/08/2020,1845.0,1845.0,3690.0,14097.230000000001,388680.76999999996,0.0366,0.01,30,12,0.008,0.005,1185.4763484999999,533.464356825,1718.9407053249997,268.51866666666666,167.82416666666668,323.9006416666667,2479.1841803249995,100,100,100,300,2779.1841803249995,20000,8055.56,42152.79,910.8158196750005,6401.5722819,24166.68,1.5096994082242243
239,5366 s salida ct,80015,Centennial,CO,39.620131,-104.78484499999999,SingleFamily,4.0,490955.0,01/08/2020,2550.0,850.0,3400.0,17183.425000000003,473771.575,0.0366,0.01,30,12,0.008,0.005,1445.00330375,650.2514866875,2095.2547904375,327.30333333333334,204.56458333333333,394.8096458333334,3021.9323529375,100,100,100,300,3321.9323529375,20000,9819.1,47002.525,78.06764706249987,7803.0178402500005,29457.3,1.0296708443854876
932,pawnee,80020,Broomfield,CO,39.940039,-105.045791,SingleFamily,4.0,739204.0,01/08/2020,3301.0,1100.3333333333333,4401.333333333333,25872.140000000003,713331.86,0.0366,0.01,30,12,0.008,0.005,2175.662173,979.04797785,3154.71015085,492.8026666666667,308.00166666666667,594.4432166666667,4549.95770085,100,100,100,300,4849.95770085,20000,14784.08,60656.22,-448.624367516667,11748.5757342,44352.24,1.0538296538096175
491,1346 e 135th ave,80241,Thornton,CO,39.941441,-104.96880800000001,SingleFamily,3.0,437618.0,01/08/2020,2500.0,1250.0,3750.0,15316.630000000001,422301.37,0.0366,0.01,30,12,0.008,0.005,1288.0191785,579.608630325,1867.627808825,291.74533333333335,182.34083333333334,351.91780833333337,2693.6317838249997,100,100,100,300,2993.6317838249997,20000,8752.36,44068.990000000005,756.3682161750003,6955.303563900001,26257.079999999998,1.2999799214368197
1679,18922 e 16th ave,80011,Aurora,CO,39.741952000000005,-104.767218,SingleFamily,2.0,252853.0,01/08/2020,1600.0,1600.0,3200.0,8849.855000000001,244003.145,0.0366,0.01,30,12,0.008,0.005,744.2095922499999,334.8943165125,1079.1039087625,168.56866666666667,105.35541666666667,203.33595416666665,1556.3639462625,100,100,100,300,1856.3639462625,20000,5057.06,33906.915,1343.6360537375,4018.73179815,15171.18,1.6077412068600168
1631,1784 n joliet st,80010,Aurora,CO,39.745304,-104.86078,SingleFamily,2.0,285337.0,01/08/2020,1650.0,1650.0,3300.0,9986.795,275350.205,0.0366,0.01,30,12,0.008,0.005,839.81812525,377.9181563625,1217.7362816125,190.22466666666665,118.89041666666667,229.45850416666667,1756.3098691125,100,100,100,300,2056.3098691125,20000,5706.74,35693.534999999996,1243.6901308875,4535.01787635,17120.22,1.5795442913401545
591,1672 e 167th ave,80602,Thornton,CO,39.997597,-104.967075,SingleFamily,4.0,514561.0,01/08/2020,2614.0,871.3333333333334,3485.3333333333335,18009.635000000002,496551.365,0.0366,0.01,30,12,0.008,0.005,1514.4816632499999,681.5167484625,2195.9984117125,343.0406666666667,214.40041666666664,413.79280416666666,3167.2322992125,100,100,100,300,3467.2322992125,20000,10291.22,48300.855,18.101034120833447,8178.2009815500005,30873.66,1.029486401244864
717,13122 clayton ct,80241,Thornton,CO,39.931884000000004,-104.954176,SingleFamily,3.0,436218.0,01/08/2020,2300.0,1150.0,3450.0,15267.630000000001,420950.37,0.0366,0.01,30,12,0.008,0.005,1283.8986284999999,577.754382825,1861.6530113249999,290.812,181.75750000000002,350.79197500000004,2685.0144863250002,100,100,100,300,2985.0144863250002,20000,8724.36,43991.990000000005,464.98551367499977,6933.0525939,26173.079999999998,1.1930798938170333
1695,2222 s truckee st,80013,Aurora,CO,39.676204999999996,-104.778627,SingleFamily,3.0,409361.0,01/08/2020,2325.0,1162.5,3487.5,14327.635000000002,395033.365,0.0366,0.01,30,12,0.008,0.005,1204.85176325,542.1832934625,1747.0350567125001,272.9073333333333,170.56708333333333,329.19447083333336,2519.7039442125,100,100,100,300,2819.7039442125,20000,8187.22,42514.855,667.7960557874999,6506.199521550001,24561.66,1.2473619442192616
1957,444 n ider st,80018,Aurora,CO,39.723499,-104.69447199999999,SingleFamily,3.0,396537.0,01/08/2020,2275.0,1137.5,3412.5,13878.795000000002,382658.205,0.0366,0.01,30,12,0.008,0.005,1167.1075252500002,525.1983863625001,1692.3059116125003,264.358,165.22375,318.8818375,2440.7694991125004,100,100,100,300,2740.7694991125004,20000,7930.74,41809.534999999996,671.7305008874996,6302.380636350001,23792.219999999998,1.2390801918031378
1721,1522 s dawson st,80012,Aurora,CO,39.688,-104.81831700000001,SingleFamily,3.0,343639.0,01/08/2020,2100.0,1050.0,3150.0,12027.365000000002,331611.635,0.0366,0.01,30,12,0.008,0.005,1011.41548675,455.1369690375,1466.5524557875,229.09266666666667,143.18291666666667,276.34302916666667,2115.1710682875,100,100,100,300,2415.1710682875,20000,6872.78,38900.145000000004,734.8289317125,5461.6436284500005,20618.34,1.2210219475788584
70,7491 s forest ct,80122,Centennial,CO,39.580855,-104.927745,SingleFamily,4.0,667381.0,01/08/2020,3084.0,1028.0,4112.0,23358.335000000003,644022.665,0.0366,0.01,30,12,0.008,0.005,1964.26912825,883.9211077125,2848.1902359625,444.92066666666665,278.0754166666667,536.6855541666667,4107.8718734625,100,100,100,300,4407.8718734625,20000,13347.62,56705.95500000001,-295.87187346249993,10607.05329255,40042.86,1.0481342005614753
1939,7820 s queensburg way,80016,Aurora,CO,39.574575,-104.677992,SingleFamily,4.0,622854.0,01/08/2020,2995.0,998.3333333333334,3993.3333333333335,21799.890000000003,601054.11,0.0366,0.01,30,12,0.008,0.005,1833.2150355,824.9467659750001,2658.161801475,415.23600000000005,259.5225,500.87842500000005,3833.798726475,100,100,100,300,4133.798726475,20000,12457.08,54256.97,-140.46539314166648,9899.361191700002,37371.24,1.060969981810632
1373,"2660 juniper ave,",80304,Boulder,CO,40.037239,-105.26163999999999,Townhouse,3.0,560297.0,01/08/2020,2395.0,1197.5,3592.5,19610.395,540686.605,0.0366,0.01,30,12,0.008,0.005,1649.09414525,742.0923653625001,2391.1865106125,373.53133333333335,233.45708333333334,450.5721708333333,3448.7470981124998,100,100,100,300,3748.7470981124998,20000,11205.94,50816.33500000001,-156.24709811249977,8905.108384350002,33617.82,1.0826826296504855
296,2546 e easter ave,80122,Centennial,CO,39.590745,-104.958748,Townhouse,3.0,316674.0,01/08/2020,2000.0,1000.0,3000.0,11083.59,305590.41,0.0366,0.01,30,12,0.008,0.005,932.0507504999999,419.42283772499997,1351.473588225,211.11599999999999,131.94750000000002,254.658675,1949.1957632249998,100,100,100,300,2249.1957632249996,20000,6333.4800000000005,37417.07,750.8042367750004,5033.0740527,19000.44,1.2038132567301503
1624,14612 e 13th cir,80011,Aurora,CO,39.736117,-104.817468,SingleFamily,3.0,359200.0,01/08/2020,2100.0,1050.0,3150.0,12572.000000000002,346628.0,0.0366,0.01,30,12,0.008,0.005,1057.2154,475.74693,1532.96233,239.46666666666667,149.66666666666666,288.8566666666667,2210.95233,100,100,100,300,2510.95233,20000,7184.0,39756.0,639.0476699999999,5708.96316,21552.0,1.1955311198309688
85,5952 e irish pl,80112,Centennial,CO,39.578868,-104.919206,SingleFamily,3.0,686603.0,01/08/2020,3155.0,1577.5,4732.5,24031.105000000003,662571.895,0.0366,0.01,30,12,0.008,0.005,2020.8442797500002,909.3799258875001,2930.2242056375003,457.73533333333336,286.08458333333334,552.1432458333334,4226.1873681375,100,100,100,300,4526.1873681375,20000,13732.06,57763.165,206.31263186249998,10912.559110650001,41196.18,1.2726880650151355
475,4225 e 106th pl,80233,Thornton,CO,39.88948,-104.935414,SingleFamily,4.0,423614.0,01/08/2020,2395.0,798.3333333333334,3193.3333333333335,14826.490000000002,408787.51,0.0366,0.01,30,12,0.008,0.005,1246.8019055,561.060857475,1807.862762975,282.40933333333334,176.50583333333336,340.65625833333337,2607.434187975,100,100,100,300,2907.434187975,20000,8472.28,43298.770000000004,285.8991453583335,6732.730289700001,25416.84,1.0429940627412742
1218,800 s 46th st,80305,Boulder,CO,39.982071000000005,-105.24141100000001,SingleFamily,5.0,1408408.0,01/08/2020,4458.0,1114.5,5572.5,49294.280000000006,1359113.72,0.0366,0.01,30,12,0.008,0.005,4145.296846,1865.3835807,6010.680426700001,938.9386666666668,586.8366666666667,1132.5947666666666,8669.0505267,100,100,100,300,8969.0505267,20000,28168.16,97462.44,-3396.550526700001,22384.602968400002,84504.48,0.8157447797120612
1820,3156 n scranton st,80011,Aurora,CO,39.761005,-104.84009499999999,SingleFamily,3.0,346660.0,01/08/2020,1975.0,987.5,2962.5,12133.1,334526.89999999997,0.0366,0.01,30,12,0.008,0.005,1020.3070449999999,459.13817025,1479.4452152499998,231.10666666666668,144.44166666666666,278.77241666666663,2133.7659652499997,100,100,100,300,2433.7659652499997,20000,6933.2,39066.299999999996,528.7340347500003,5509.658042999999,20799.6,1.1391932806536582
356,18158 e long ave,80016,Centennial,CO,39.576682,-104.77732900000001,SingleFamily,5.0,1452979.0,01/08/2020,6603.0,1650.75,8253.75,50854.26500000001,1402124.7349999999,0.0366,0.01,30,12,0.008,0.005,4276.48044175,1924.4161987875,6200.8966405374995,968.6526666666667,605.4079166666667,1168.4372791666667,8943.3945030375,100,100,100,300,9243.3945030375,20000,29059.58,99913.84500000002,-989.6445030374998,23092.99438545,87178.73999999999,1.1830692768254487
668,13490 trenton st,80602,Brighton,CO,39.940917,-104.89649299999999,SingleFamily,4.0,442158.0,01/08/2020,2300.0,766.6666666666666,3066.6666666666665,15475.53,426682.47,0.0366,0.01,30,12,0.008,0.005,1301.3815335,585.621690075,1887.003223575,294.772,184.2325,355.56872500000003,2721.576448575,100,100,100,300,3021.576448575,20000,8843.16,44318.69,45.09021809166643,7027.460280899999,26529.48,0.9769698269059847
470,13143 cook ct,80241,Thornton,CO,39.932532,-104.946998,SingleFamily,4.0,392032.0,01/08/2020,2313.0,771.0,3084.0,13721.12,378310.88,0.0366,0.01,30,12,0.008,0.005,1153.8481840000002,519.2316828,1673.0798668000002,261.3546666666667,163.34666666666666,315.2590666666667,2413.0402668,100,100,100,300,2713.0402668,20000,7840.64,41561.76,370.95973319999985,6230.7801936000005,23521.92,1.0455817316687261
98,6101 s mobile st,80016,Centennial,CO,39.60649,-104.797415,SingleFamily,4.0,751065.0,01/08/2020,3500.0,1166.6666666666667,4666.666666666667,26287.275,724777.725,0.0366,0.01,30,12,0.008,0.005,2210.57206125,994.7574275625,3205.3294888125,500.71000000000004,312.94375,603.9814375,4622.9646763125,100,100,100,300,4922.9646763125,20000,15021.300000000001,61308.575000000004,-256.2980096458332,11937.089130749999,45063.9,1.1079267951505967
772,14500 columbine st,80602,Thornton,CO,39.959499,-104.95746899999999,SingleFamily,2.0,492307.0,01/08/2020,2450.0,2450.0,4900.0,17230.745000000003,475076.255,0.0366,0.01,30,12,0.008,0.005,1448.98257775,652.0421599875,2101.0247377375,328.2046666666667,205.12791666666666,395.8968791666667,3030.2542002375,100,100,100,300,3330.2542002375,20000,9846.14,47076.885,1569.7457997625002,7824.50591985,29538.42,1.8182994800314423
303,16335 e crestline pl,80015,Centennial,CO,39.618085,-104.798259,SingleFamily,4.0,642027.0,01/08/2020,2988.0,996.0,3984.0,22470.945000000003,619556.0549999999,0.0366,0.01,30,12,0.008,0.005,1889.6459677499997,850.3406854874999,2739.9866532374995,428.01800000000003,267.51125,516.2967124999999,3951.8126157374995,100,100,100,300,4251.812615737499,20000,12840.54,55311.48500000001,-267.8126157374991,10204.088225849999,38521.619999999995,1.0389154591853753
209,4314 e peakview cir,80121,Centennial,CO,39.597002,-104.93779099999999,SingleFamily,3.0,409974.0,01/08/2020,2100.0,1050.0,3150.0,14349.090000000002,395624.91,0.0366,0.01,30,12,0.008,0.005,1206.6559755,542.995188975,1749.651164475,273.316,170.8225,329.687425,2523.477089475,100,100,100,300,2823.477089475,20000,8199.48,42548.57000000001,326.52291052500004,6515.9422677,24598.44,1.1194890261646864
210,5700 s pearl st,80121,Centennial,CO,39.612989,-104.98066100000001,SingleFamily,7.0,785506.0,01/08/2020,2600.0,433.3333333333333,3033.333333333333,27492.710000000003,758013.2899999999,0.0366,0.01,30,12,0.008,0.005,2311.9405345,1040.373240525,3352.313775025,523.6706666666666,327.2941666666667,631.6777416666666,4834.956350025,100,100,100,300,5134.956350025,20000,15710.12,63202.83000000001,-2101.6230166916666,12484.4788863,47130.36,0.6264808503986292
1879,11974 e alaska ave,80012,Aurora,CO,39.707456,-104.84859499999999,SingleFamily,3.0,352474.0,01/08/2020,2100.0,1050.0,3150.0,12336.590000000002,340137.41,0.0366,0.01,30,12,0.008,0.005,1037.4191005,466.838595225,1504.257695725,234.98266666666666,146.86416666666668,283.44784166666665,2169.552370725,100,100,100,300,2469.552370725,20000,7049.4800000000005,39386.07000000001,680.447629275,5602.0631427,21148.44,1.206413198727367
96,8003 e hinsdale pl,80112,Centennial,CO,39.581359,-104.895802,SingleFamily,5.0,566813.0,01/08/2020,2700.0,675.0,3375.0,19838.455,546974.5449999999,0.0366,0.01,30,12,0.008,0.005,1668.2723622499998,750.7225630124999,2418.9949252624997,377.87533333333334,236.17208333333335,455.81212083333327,3488.8544627624997,100,100,100,300,3788.8544627624997,20000,11336.26,51174.715000000004,-413.8544627624997,9008.670756149999,34008.78,0.9018359399363534
1433,5150 e euclid ave,80303,Boulder,CO,40.005284,-105.229336,SingleFamily,3.0,965666.0,01/08/2020,2900.0,1450.0,4350.0,33798.310000000005,931867.69,0.0366,0.01,30,12,0.008,0.005,2842.1964544999996,1278.9884045249999,4121.184859024999,643.7773333333333,402.36083333333335,776.5564083333334,5943.879434024999,100,100,100,300,6243.879434024999,20000,19313.32,73111.63,-1893.8794340249988,15347.860854299997,57939.96,0.9295548142751023
1461,3129 redstone ln,80305,Boulder,CO,39.967038,-105.25338,Condominium,2.0,462359.0,01/08/2020,1995.0,1995.0,3990.0,16182.565000000002,446176.435,0.0366,0.01,30,12,0.008,0.005,1360.8381267500001,612.3771570375001,1973.2152837875,308.2393333333334,192.64958333333334,371.8136958333334,2845.9178962875003,100,100,100,300,3145.9178962875003,20000,9247.18,45429.745,844.0821037124997,7348.52588445,27741.539999999997,1.5223297231582522
684,13323 birch cir,80241,Thornton,CO,39.938316,-104.936701,SingleFamily,2.0,335967.0,01/08/2020,1925.0,1925.0,3850.0,11758.845000000001,324208.15499999997,0.0366,0.01,30,12,0.008,0.005,988.8348727499998,444.9756927374999,1433.8105654874998,223.97799999999998,139.98625,270.17346249999997,2067.9482779874998,100,100,100,300,2367.9482779874998,20000,6719.34,38478.185,1482.0517220125002,5339.708312849999,20158.02,1.7251943920171913
750,12720 madison ct,80241,Thornton,CO,39.925315999999995,-104.945323,Condominium,2.0,387454.0,01/08/2020,1700.0,1700.0,3400.0,13560.890000000001,373893.11,0.0366,0.01,30,12,0.008,0.005,1140.3739855000001,513.168293475,1653.542278975,258.30266666666665,161.43916666666667,311.57759166666665,2384.861703975,100,100,100,300,2684.861703975,20000,7749.08,41309.97,715.1382960249998,6158.0195217,23247.239999999998,1.4133856566344636
1965,1043 s quintero st,80017,Aurora,CO,39.697016999999995,-104.78755600000001,Townhouse,2.0,210408.0,01/08/2020,1495.0,1495.0,2990.0,7364.280000000001,203043.72,0.0366,0.01,30,12,0.008,0.005,619.283346,278.67750570000004,897.9608517000001,140.27200000000002,87.67,169.2031,1295.1059517,100,100,100,300,1595.1059517,20000,4208.16,31572.44,1394.8940483,3344.1300684000007,12624.48,1.6041629550329335
246,5961 s high ct,80121,Centennial,CO,39.608356,-104.966099,SingleFamily,5.0,1333914.0,01/08/2020,6152.0,1538.0,7690.0,46686.990000000005,1287227.01,0.0366,0.01,30,12,0.008,0.005,3926.0423805000005,1766.7190712250003,5692.761451725,889.276,555.7975,1072.689175,8210.524126725,100,100,100,300,8510.524126725,20000,26678.28,93365.27,-820.5241267250003,21200.628854700004,80034.84,1.1765100591901034
1892,3604 s richfield cir,80013,Aurora,CO,39.651498,-104.785852,SingleFamily,3.0,385476.0,01/08/2020,2285.0,1142.5,3427.5,13491.660000000002,371984.33999999997,0.0366,0.01,30,12,0.008,0.005,1134.5522369999999,510.54850665,1645.10074365,256.984,160.615,309.98695,2372.6866936499996,100,100,100,300,2672.6866936499996,20000,7709.52,41201.18000000001,754.8133063500004,6126.5820797999995,23128.559999999998,1.2626556267563207
1501,642 concord ave,80304,Boulder,CO,40.022475,-105.28746000000001,SingleFamily,5.0,1885424.0,01/08/2020,5947.0,1486.75,7433.75,65989.84000000001,1819434.16,0.0366,0.01,30,12,0.008,0.005,5549.274187999999,2497.1733845999997,8046.447572599999,1256.9493333333332,785.5933333333334,1516.1951333333334,11605.185372599999,100,100,100,300,11905.185372599999,20000,37708.48,123698.32,-4471.435372599999,29966.080615199997,113125.44,0.8672332505728453
429,12464 kearney cir,80602,Thornton,CO,39.921402,-104.92021399999999,SingleFamily,3.0,506821.0,01/08/2020,2604.0,1302.0,3906.0,17738.735,489082.26499999996,0.0366,0.01,30,12,0.008,0.005,1491.7009082499999,671.2654087125,2162.9663169625,337.8806666666667,211.17541666666668,407.5685541666667,3119.5909544625,100,100,100,300,3419.5909544625,20000,10136.42,47875.155,486.4090455374999,8055.184904549999,30409.26,1.2517004582230595
1505,2350 linden ave,80304,Boulder,CO,40.040504,-105.265441,SingleFamily,4.0,4492123.0,01/08/2020,14208.0,4736.0,18944.0,157224.30500000002,4334898.695,0.0366,0.01,30,12,0.008,0.005,13221.441019750002,5949.648458887501,19171.089478637503,2994.748666666667,1871.7179166666667,3612.415579166667,27649.971641137505,100,100,100,300,27949.971641137505,20000,89842.46,267066.765,-9005.971641137505,71395.78150665,269527.38,1.0846857032659978
422,11729 elizabeth pl,80233,Thornton,CO,39.906858,-104.95406499999999,SingleFamily,3.0,367025.0,01/08/2020,2100.0,1050.0,3150.0,12845.875000000002,354179.125,0.0366,0.01,30,12,0.008,0.005,1080.2463312500001,486.11084906250005,1566.3571803125,244.68333333333337,152.92708333333334,295.14927083333333,2259.1168678125,100,100,100,300,2559.1168678125,20000,7340.5,40186.375,590.8831321875,5833.33018875,22021.5,1.1831230802728536
128,1337 e euclid ave,80121,Centennial,CO,39.599506,-104.97221100000002,SingleFamily,3.0,507409.0,01/08/2020,2450.0,1225.0,3675.0,17759.315000000002,489649.685,0.0366,0.01,30,12,0.008,0.005,1493.43153925,672.0441926625,2165.4757319125,338.2726666666667,211.42041666666668,408.0414041666667,3123.2102194125005,100,100,100,300,3423.2102194125005,20000,10148.18,47907.495,251.78978058749954,8064.53031195,30444.539999999997,1.173731744458774
726,3546 e 140th dr,80602,Thornton,CO,39.950826,-104.945027,SingleFamily,4.0,432997.0,01/08/2020,2400.0,800.0,3200.0,15154.895000000002,417842.105,0.0366,0.01,30,12,0.008,0.005,1274.4184202499998,573.4882891125,1847.9067093625,288.6646666666667,180.4154166666667,348.20175416666666,2665.1885468624996,100,100,100,300,2965.1885468624996,20000,8659.94,43814.83500000001,234.8114531375004,6881.85946935,25979.82,1.033426621531269
373,7249 s sherman st,80122,Centennial,CO,39.586304,-104.986476,SingleFamily,4.0,416638.0,01/08/2020,2195.0,731.6666666666666,2926.6666666666665,14582.330000000002,402055.67,0.0366,0.01,30,12,0.008,0.005,1226.2697934999999,551.8214070749999,1778.0912005749997,277.75866666666667,173.59916666666666,335.0463916666667,2564.495425575,100,100,100,300,2864.495425575,20000,8332.76,42915.090000000004,62.171241091666616,6621.8568848999985,24998.28,0.958781439768622
247,7114 s clarkson st,80122,Centennial,CO,39.587796999999995,-104.975169,SingleFamily,4.0,500428.0,01/08/2020,2550.0,850.0,3400.0,17514.980000000003,482913.01999999996,0.0366,0.01,30,12,0.008,0.005,1472.884711,662.79811995,2135.6828309499997,333.6186666666667,208.51166666666666,402.42751666666663,3080.24068095,100,100,100,300,3380.24068095,20000,10008.56,47523.54,19.75931905000016,7953.5774394,30025.68,1.0187870951532652
1267,731 18th st,80302,Boulder,CO,40.000624,-105.27041200000001,SingleFamily,4.0,973017.0,01/08/2020,3002.0,1000.6666666666666,4002.6666666666665,34055.595,938961.405,0.0366,0.01,30,12,0.008,0.005,2863.83228525,1288.7245283625,4152.5568136125,648.678,405.42375,782.4678375,5989.1264011125,100,100,100,300,6289.1264011125,20000,19460.34,73515.935,-2286.459734445834,15464.69434035,58381.02,0.7946059249195428
355,5292 e otero dr,80122,Centennial,CO,39.568577000000005,-104.92683999999998,SingleFamily,5.0,1151204.0,01/08/2020,5386.0,1346.5,6732.5,40292.14000000001,1110911.8599999999,0.0366,0.01,30,12,0.008,0.005,3388.2811729999994,1524.7265278499997,4913.007700849999,767.4693333333333,479.66833333333335,925.7598833333333,7085.905250849999,100,100,100,300,7385.905250849999,20000,23024.08,83316.22,-653.405250849999,18296.718334199995,69072.23999999999,1.148468993480501
1719,2084 n havana st,80010,Aurora,CO,39.748992,-104.865466,SingleFamily,3.0,306570.0,01/08/2020,1800.0,900.0,2700.0,10729.95,295840.05,0.0366,0.01,30,12,0.008,0.005,902.3121525,406.040468625,1308.352621125,204.38,127.73750000000001,246.53337499999998,1887.003496125,100,100,100,300,2187.0034961250003,20000,6131.400000000001,36861.35,512.9965038749997,4872.485623500001,18394.2,1.0911874814677163
1308,3620 roundtree ct,80304,Boulder,CO,40.040779,-105.25978700000002,SingleFamily,3.0,784903.0,01/08/2020,2995.0,1497.5,4492.5,27471.605000000003,757431.395,0.0366,0.01,30,12,0.008,0.005,2310.1657547500004,1039.5745896375001,3349.7403443875005,523.2686666666667,327.04291666666666,631.1928291666667,4831.2447568875,100,100,100,300,5131.2447568875,20000,15698.06,63169.665,-638.7447568875004,12474.895075650002,47094.18,1.106134376254805
622,9721 cherry ln,80229,Thornton,CO,39.872946,-104.934854,Townhouse,3.0,283979.0,01/08/2020,1795.0,897.5,2692.5,9939.265000000001,274039.735,0.0366,0.01,30,12,0.008,0.005,835.8211917499999,376.11953628749995,1211.9407280374999,189.31933333333333,118.32458333333334,228.3664458333333,1747.9510905374998,100,100,100,300,2047.9510905374998,20000,5679.58,35618.845,644.5489094625002,4513.434435449999,17038.739999999998,1.124594616950662
694,16547 lafayette st,80602,Thornton,CO,39.994853000000006,-104.96768200000001,SingleFamily,4.0,419577.0,01/08/2020,2300.0,766.6666666666666,3066.6666666666665,14685.195000000002,404891.805,0.0366,0.01,30,12,0.008,0.005,1234.92000525,555.7140023625001,1790.6340076125002,279.718,174.82375000000002,337.40983750000004,2582.5855951125,100,100,100,300,2882.5855951125,20000,8391.54,43076.735,184.08107155416656,6668.5680283500005,25174.62,1.0040724044429086
1550,4596 macarthur dr,80303,Boulder,CO,40.01338,-105.236576,SingleFamily,3.0,630836.0,01/08/2020,2700.0,1350.0,4050.0,22079.260000000002,608756.74,0.0366,0.01,30,12,0.008,0.005,1856.708057,835.51862565,2692.22668265,420.55733333333336,262.84833333333336,507.2972833333333,3882.92963265,100,100,100,300,4182.92963265,20000,12616.720000000001,54695.98,-132.9296326499998,10026.2235078,37850.159999999996,1.1423367478926238
1239,3821 w apache ct,80303,Boulder,CO,39.993632,-105.245759,SingleFamily,3.0,613767.0,01/08/2020,2395.0,1197.5,3592.5,21481.845,592285.155,0.0366,0.01,30,12,0.008,0.005,1806.46972275,812.9113752375,2619.3810979875,409.17800000000005,255.73625,493.5709625,3777.8663104875,100,100,100,300,4077.8663104875,20000,12275.34,53757.185,-485.36631048749996,9754.93650285,36826.02,1.0254733535061407
542,1904 w 102nd ave,80260,Thornton,CO,39.880573999999996,-105.010263,Condominium,3.0,267081.0,01/08/2020,1800.0,900.0,2700.0,9347.835000000001,257733.16499999998,0.0366,0.01,30,12,0.008,0.005,786.0861532499999,353.7387689625,1139.8249222125,178.054,111.28375,214.77763749999997,1643.9403097125,100,100,100,300,1943.9403097125,20000,5341.62,34689.455,756.0596902875,4244.86522755,16024.859999999999,1.1571943552010258
797,4028 e 133rd pl,80241,Thornton,CO,39.938845,-104.939472,SingleFamily,3.0,373176.0,01/08/2020,2195.0,1097.5,3292.5,13061.160000000002,360114.83999999997,0.0366,0.01,30,12,0.008,0.005,1098.350262,494.25761789999996,1592.6078799,248.784,155.49,300.09569999999997,2296.9775799,100,100,100,300,2596.9775799,20000,7463.52,40524.68000000001,695.5224201000001,5931.091414799999,22390.559999999998,1.2298165082611383
1241,2500 baseline rd,80302,Boulder,CO,39.999813,-105.273435,SingleFamily,4.0,1424842.0,01/08/2020,4705.0,1568.3333333333333,6273.333333333333,49869.47,1374972.53,0.0366,0.01,30,12,0.008,0.005,4193.666216500001,1887.1497974250003,6080.816013925001,949.8946666666667,593.6841666666667,1145.8104416666667,8770.205288925003,100,100,100,300,9070.205288925003,20000,28496.84,98366.31,-2796.8719555916696,22645.797569100003,85490.52,0.9494496042598322
1400,2546 pampas ct,80304,Boulder,CO,40.046302000000004,-105.26394599999999,SingleFamily,3.0,1661709.0,01/08/2020,5171.0,2585.5,7756.5,58159.815,1603549.185,0.0366,0.01,30,12,0.008,0.005,4890.82501425,2200.8712564125003,7091.6962706625,1107.806,692.37875,1336.2909875,10228.1720081625,100,100,100,300,10528.1720081625,20000,33234.18,111393.995,-2771.672008162501,26410.455076950006,99702.54,1.1120790755282635
1876,25230 e arbor pl,80016,Aurora,CO,39.603991,-104.693999,SingleFamily,4.0,545568.0,01/08/2020,2850.0,950.0,3800.0,19094.88,526473.12,0.0366,0.01,30,12,0.008,0.005,1605.7430160000001,722.5843572000001,2328.3273732000002,363.712,227.32000000000002,438.7276,3358.0869732000006,100,100,100,300,3658.0869732000006,20000,10911.36,50006.240000000005,141.91302679999944,8671.0122864,32734.079999999998,1.0900249370478563
1808,12660 e bates cir,80014,Aurora,CO,39.662895,-104.840132,SingleFamily,3.0,420270.0,01/08/2020,2350.0,1175.0,3525.0,14709.45,405560.55,0.0366,0.01,30,12,0.008,0.005,1236.9596775,556.631854875,1793.591532375,280.18,175.11249999999998,337.967125,2586.851157375,100,100,100,300,2886.851157375,20000,8405.4,43114.85,638.1488426249998,6679.5822585000005,25216.2,1.2444336086058514
